機構代碼,機構名稱,電話,縣市區名,地址,科別,1語言治療師,2牙體技術師,3聽力師,4牙體技術士,5驗光師,6驗光生,A醫師,B中醫師,C牙醫師,D藥師,E藥劑生,F護理師,G護士,H助產士,I助產師,J醫事檢驗師,K醫事檢驗生,Q物理治療師,R職能治療師,S醫事放射師,T醫事放射士,U物理治療生,W職能治療生,V呼吸治療師,X諮商心理師,Y臨床心理師,Z營養師,區名,緯度,經度
3503010216,梁文宜復健科診所,04-25220739,臺中市豐原區,臺中市豐原區圓環東路656號1、2樓,"復健科,",0,0,0,0,0,0,1,0,0,0,0,0,0,0,0,0,0,5,0,0,0,1,0,0,0,0,0,豐原區,24.2503544,120.7284129
3503010403,世淋診所,25207017,臺中市豐原區,臺中市豐原區中正路497號1樓,"精神科,",0,0,0,0,0,0,1,0,0,1,0,0,0,0,0,0,0,0,0,0,0,0,0,0,0,0,0,豐原區,24.250332,120.710839
3836010320,詹中醫診所,04-25267707,臺中市豐原區,臺中市豐原區惠陽街７號１樓,"中醫一般科,",0,0,0,0,0,0,0,1,0,0,0,0,0,0,0,0,0,0,0,0,0,0,0,0,0,0,0,豐原區,24.2488883,120.7225892
3503010421,佳藝診所,04-25132240,臺中市豐原區,臺中市豐原區豐勢路二段386號1樓、388號1樓,"家庭醫學科,復健科,",2,0,0,0,0,0,2,0,0,1,0,10,1,0,0,0,0,3,2,0,0,0,0,0,0,0,0,豐原區,24.2644623,120.7443397
3503010467,吳晉淵骨科診所,04-25355206,臺中市豐原區,臺中市豐原區三民路65號1、2樓,"外科,骨科,",0,0,0,0,0,0,1,0,0,0,0,2,0,0,0,0,0,3,0,0,0,2,0,0,0,0,0,豐原區,24.25358,120.720984
3503010387,豐原嬌點美學診所,04-25208588,臺中市豐原區,臺中市豐原區圓環東路407號1、2樓,"西醫一般科,",0,0,0,0,0,0,1,0,0,0,0,3,0,0,0,0,0,0,0,0,0,0,0,0,0,0,0,豐原區,24.2464737,120.7257738
3503010449,愛美診所,04-25260599,臺中市豐原區,臺中市豐原區向陽路148號3樓,"西醫一般科,",0,0,0,0,0,0,1,0,0,0,0,3,0,0,0,0,0,0,0,0,0,0,0,0,0,0,0,豐原區,24.252146,120.724992
3803010196,祥發中醫診所,04-25285474,臺中市豐原區,臺中市豐原區中正路502號1樓,"中醫一般科,",0,0,0,0,0,0,0,2,0,0,0,0,0,0,0,0,0,0,0,0,0,0,0,0,0,0,0,豐原區,24.2505578,120.7086631
3803010178,豐南大同中醫診所,04-25274601,臺中市豐原區,臺中市豐原區中山路200號1、2樓,"中醫一般科,",0,0,0,0,0,0,0,7,0,2,0,5,1,0,0,0,0,0,0,0,0,0,0,0,0,0,0,豐原區,24.2404091,120.7124247
3503010350,禾安診所,04-25231588,臺中市豐原區,臺中市豐原區永康路312號1樓,"家庭醫學科,",0,0,0,0,0,0,1,0,0,1,0,1,1,0,0,0,0,0,0,0,0,0,0,0,0,0,0,豐原區,24.2401374,120.7226778
1503010045,惠盛醫院,425229100,臺中市豐原區,臺中市豐原區中正路268號,"家庭醫學科,內科,復健科,中醫一般科,",1,0,0,0,0,0,3,2,0,2,0,15,1,0,0,2,0,4,3,1,0,1,0,0,0,0,1,豐原區,24.2518425,120.7161566
3503010369,如毅診所,04-25263806,臺中市豐原區,臺中市豐原區中興路112號1、2、3、4樓,"外科,復健科,",2,0,0,0,0,0,3,0,0,0,0,2,1,0,0,0,0,6,4,0,0,5,0,0,0,0,0,豐原區,24.2483799,120.715151
3503010314,享開心身心診所,04-25225361,臺中市豐原區,臺中市豐原區三民路86號3樓,"精神科,",0,0,0,0,0,0,3,0,0,1,0,1,0,0,0,0,0,0,0,0,0,0,0,0,0,0,0,豐原區,24.2538359,120.7206968
3536011410,親安耳鼻喉科診所,04 25202390,臺中市豐原區,臺中市豐原區西勢里中山路４１９號,"耳鼻喉科,",0,0,0,0,0,0,1,0,0,0,1,0,0,0,0,0,0,0,0,0,0,0,0,0,0,0,0,豐原區,24.2506617,120.7143322
3703010041,鉅豐牙醫診所,04-25243313,臺中市豐原區,臺中市豐原區和平街48號及50號1樓,"牙醫一般科,",0,0,0,0,0,0,0,0,6,0,0,0,0,0,0,0,0,0,0,0,0,0,0,0,0,0,0,豐原區,24.2530313,120.7200723
3703010096,聖恩牙醫診所,04-25291388,臺中市豐原區,臺中市豐原區向陽路72號1樓,"牙醫一般科,",0,0,0,0,0,0,0,0,0,0,0,0,0,0,0,0,0,0,0,0,0,0,0,0,0,0,0,豐原區,24.2519808,120.7227671
3536010431,豐壽診所,04 25243947,臺中市豐原區,臺中市豐原區圓環南路１５６號,"家庭醫學科,外科,",0,0,0,0,0,0,2,0,0,1,0,0,1,0,0,0,0,0,0,0,0,0,0,0,0,0,0,豐原區,24.248101,120.710147
3836010651,久大中醫診所,04-25293445,臺中市豐原區,臺中市豐原區大明路２２號,"中醫一般科,",0,0,0,0,0,0,0,1,0,0,0,0,0,0,0,0,0,0,0,0,0,0,0,0,0,0,0,豐原區,24.2398585,120.7106264
3503010298,晨欣親子診所,04-25256525,臺中市豐原區,臺中市豐原區豐東路83號1樓、2樓,"兒科,",0,0,0,0,0,0,2,0,0,3,0,1,0,0,0,0,0,0,0,0,0,0,0,0,0,0,0,豐原區,24.2488916,120.7303709
3836012020,養生中醫診所,04-25262492,臺中市豐原區,臺中市豐原區三豐路二段168號1樓,"中醫一般科,",0,0,0,0,0,0,0,1,0,0,0,0,0,0,0,0,0,0,0,0,0,0,0,0,0,0,0,豐原區,24.2647685,120.7204391
3536010566,林秋能小兒科診所,04 25268575,臺中市豐原區,臺中市豐原區中山路４３７號,"兒科,",0,0,0,0,0,0,1,0,0,1,0,1,0,0,0,0,0,0,0,0,0,0,0,0,0,0,0,豐原區,24.2515378,120.7140491
3536010217,廖勁直內科小兒科診所,04 25266620,臺中市豐原區,臺中市豐原區中興路１２６號,"內科,兒科,",0,0,0,0,0,0,2,0,0,0,1,0,0,0,0,0,0,0,0,0,0,0,0,0,0,0,0,豐原區,24.2483319,120.714835
3536010164,賴內科小兒科診所,04-25323780,臺中市豐原區,臺中市豐原區中山路72號,"內科,兒科,",0,0,0,0,0,0,1,0,0,0,0,1,1,0,0,0,0,0,0,0,0,0,0,0,0,0,0,豐原區,24.2374458,120.7107624
3536012640,林隆弘診所,04-25268432,臺中市豐原區,臺中市豐原區田心路二段四０號,"西醫一般科,",0,0,0,0,0,0,1,0,0,1,0,0,0,0,0,0,0,0,0,0,0,0,0,0,0,0,0,豐原區,24.2386453,120.7222797
3736010248,肇洲牙醫診所,04 25278288,臺中市豐原區,臺中市豐原區田心路一段６１號,"牙醫一般科,",0,0,0,0,0,0,0,0,1,0,0,0,0,0,0,0,0,0,0,0,0,0,0,0,0,0,0,豐原區,24.2469437,120.71731
3736010855,豐南牙醫診所,04 25223241,臺中市豐原區,臺中市豐原區大明路２０號,"牙醫一般科,",0,0,0,0,0,0,0,0,1,0,0,0,0,0,0,0,0,0,0,0,0,0,0,0,0,0,0,豐原區,24.239929,120.710711
3536011090,豐原李耳鼻喉科診所,04 25291915,臺中市豐原區,臺中市豐原區南陽路２９５號,"耳鼻喉科,",0,0,0,0,0,0,2,0,0,0,2,0,0,0,0,0,0,0,0,0,0,0,0,0,0,0,0,豐原區,24.245091,120.727005
3703010103,晶悅牙醫診所,04-25281528,臺中市豐原區,臺中市豐原區中正路908號1樓,"牙醫一般科,",0,0,0,0,0,0,0,0,4,0,0,0,0,0,0,0,0,0,0,0,0,0,0,0,0,0,0,豐原區,24.2491916,120.6999194
3836010400,德純中醫診所,04 25263750,臺中市豐原區,臺中市豐原區成功路１８５號,"中醫一般科,",0,0,0,0,0,0,0,1,0,0,0,1,0,0,0,0,0,0,0,0,0,0,0,0,0,0,0,豐原區,24.2452167,120.7090743
3736010695,牙白牙醫診所,04 25290071,臺中市豐原區,臺中市豐原區同安街１６８號,"牙醫一般科,",0,0,0,0,0,0,0,0,1,0,0,0,0,0,0,0,0,0,0,0,0,0,0,0,0,0,0,豐原區,24.248062,120.7263952
3703010121,豐中牙醫診所,04-25277544,臺中市豐原區,臺中市豐原區三豐路一段65號1樓及夾層、67號1樓,"牙醫一般科,",0,0,0,0,0,0,0,0,3,0,0,0,0,0,0,0,0,0,0,0,0,0,0,0,0,0,0,豐原區,24.2560495,120.7224817
3836012066,一品堂豐原中醫診所,04-25232568,臺中市豐原區,臺中市豐原區圓環北路二段１６１、１６３號１樓、２樓、３樓,"中醫一般科,",0,0,0,0,0,0,0,8,0,0,0,2,0,0,0,0,0,0,0,0,0,0,0,0,0,0,0,豐原區,24.2608265,120.7235749
3836012075,健原中醫診所,04-25267455,臺中市豐原區,臺中市豐原區三民路１６６號１、２樓,"中醫一般科,",0,0,0,0,0,0,0,1,0,0,0,0,0,0,0,0,0,0,0,0,0,0,0,0,0,0,0,豐原區,24.2535712,120.7189353
3736010766,陽光牙醫診所,04 25206870,臺中市豐原區,臺中市豐原區愛國街２６８號,"牙醫一般科,",0,0,0,0,0,0,0,0,1,0,0,0,0,0,0,0,0,0,0,0,0,0,0,0,0,0,0,豐原區,24.2526969,120.7282574
3503010458,智聖診所,04-25150200,臺中市豐原區,臺中市豐原區三民路65號6樓,"外科,",0,0,0,0,0,0,1,0,0,0,0,2,0,0,0,0,0,0,0,0,0,0,0,0,0,0,0,豐原區,24.2536032,120.7209469
3836010455,聖惠方中醫診所,04-25295336,臺中市豐原區,臺中市豐原區育仁路２０２號１樓,"中醫一般科,",0,0,0,0,0,0,0,1,0,0,0,0,0,0,0,0,0,0,0,0,0,0,0,0,0,0,0,豐原區,24.2396803,120.7160486
3836010142,犁安中醫診所,04-25232413,臺中市豐原區,臺中市豐原區圓環西路１５９號,"中醫一般科,",0,0,0,0,0,0,0,1,0,0,0,0,0,0,0,0,0,0,0,0,0,0,0,0,0,0,0,豐原區,24.254747,120.709893
3503010430,日曦美學診所,04-25230666,臺中市豐原區,臺中市豐原區豐東一街2號1、2、3樓,"西醫一般科,",0,0,0,0,0,0,1,0,0,0,0,2,0,0,0,0,0,0,0,0,0,0,0,0,0,0,0,豐原區,24.2511052,120.7320107
3736010168,正豐牙醫診所,04 25263367,臺中市豐原區,臺中市豐原區向陽路186號1樓,"牙醫一般科,",0,0,0,0,0,0,0,0,4,0,0,0,0,0,0,0,0,0,0,0,0,0,0,0,0,0,0,豐原區,24.2522508,120.7256858
3536010351,蘇內兒科診所,04 25266788,臺中市豐原區,臺中市豐原區府前街３８號,"內科,兒科,",0,0,0,0,0,0,1,0,0,1,0,0,0,0,0,0,0,0,0,0,0,0,0,0,0,0,0,豐原區,24.2496855,120.719447
3503010412,合石骨科診所,25220739,臺中市豐原區,臺中市豐原區圓環東路656號1樓,"骨科,",0,0,0,0,0,0,1,0,0,0,0,1,1,0,0,0,0,0,0,0,0,0,0,0,0,0,0,豐原區,24.2503544,120.7284129
3736010640,吉德牙醫診所,04 25202929,臺中市豐原區,臺中市豐原區三豐路二段5號,"牙醫一般科,",0,0,0,0,0,0,0,0,1,0,0,0,0,0,0,0,0,0,0,0,0,0,0,0,0,0,0,豐原區,24.264426,120.7201576
3536011063,陳成福診所,04 25120612,臺中市豐原區,臺中市豐原區和平街４７號,"家庭醫學科,內科,",0,0,0,0,0,0,3,0,0,1,1,4,0,0,0,0,0,0,0,0,0,0,0,0,0,0,0,豐原區,24.253168,120.719762
3536012935,唐偉?復健科診所,04-25297228 . 04-25273259,臺中市豐原區,臺中市豐原區中山路371號,"復健科,",0,0,0,0,0,0,1,0,0,0,0,1,0,0,0,0,0,7,0,0,0,2,0,0,0,0,0,豐原區,24.249642,120.71455
3536010959,許躍騰診所,04 25222010,臺中市豐原區,臺中市豐原區中正路２２２號,"家庭醫學科,",0,0,0,0,0,0,1,0,0,1,0,0,0,0,0,0,0,0,0,0,0,0,0,0,0,0,0,豐原區,24.252114,120.717359
3736010873,潔美牙醫診所,04 25257963,臺中市豐原區,臺中市豐原區育仁路110號1樓,"牙醫一般科,",0,0,0,0,0,0,0,0,1,0,0,0,0,0,0,0,0,0,0,0,0,0,0,0,0,0,0,豐原區,24.2415193,120.7170223
3736010499,翁子牙醫診所,04 25286302,臺中市豐原區,臺中市豐原區圓環東路697及699號,"牙醫一般科,",0,0,0,0,0,0,0,0,1,0,0,0,0,0,0,0,0,0,0,0,0,0,0,0,0,0,0,豐原區,24.2526093,120.7292077
3536010799,重仁骨科診所,04 25237075,臺中市豐原區,臺中市豐原區中山路４８７號,"骨科,復健科,",0,0,0,0,0,0,2,0,0,1,1,1,0,0,0,0,0,4,0,1,0,1,0,0,0,0,0,豐原區,24.2530824,120.7139432
3536011367,陳聰波診所,04 25251598,臺中市豐原區,臺中市豐原區中正路234號,"西醫一般科,",0,0,0,0,0,0,6,0,0,0,0,8,0,0,0,0,0,0,0,0,0,0,0,0,0,0,0,豐原區,24.252011,120.71709
3503010172,麗緻診所,04-25250920,臺中市豐原區,臺中市豐原區中正路124號1樓,"西醫一般科,",0,0,0,0,0,0,3,0,0,0,0,0,1,0,0,0,0,0,0,0,0,0,0,0,0,0,0,豐原區,24.251804,120.7203698
3736010211,游牙醫診所,04 25231119,臺中市豐原區,臺中市豐原區豐東路98號,"牙醫一般科,",0,0,0,0,0,0,0,0,1,0,0,0,0,0,0,0,0,0,0,0,0,0,0,0,0,0,0,豐原區,24.2472689,120.7297415
3536012515,張宗聖耳鼻喉科診所,04-2520-0049 或 0952-963-637,臺中市豐原區,臺中市豐原區中正路66號1樓,"耳鼻喉科,",0,0,0,0,0,0,3,0,0,0,0,0,1,0,0,0,0,0,0,0,0,0,0,0,0,0,0,豐原區,24.252881,120.721406
3536011287,謝榮吉診所,04 25283295,臺中市豐原區,臺中市豐原區南陽路２９９?６號,"西醫一般科,",0,0,0,0,0,0,1,0,0,1,0,1,0,0,0,0,0,0,0,0,0,0,0,0,0,0,1,豐原區,24.245455,120.726614
3836012119,溫秀丹中醫診所,04-25286178,臺中市豐原區,臺中市豐原區三民路36號１樓,"中醫一般科,",0,0,0,0,0,0,0,1,0,0,0,0,0,0,0,0,0,0,0,0,0,0,0,0,0,0,0,豐原區,24.2541414,120.7220882
3736010257,長青牙醫診所.,04 25268808,臺中市豐原區,臺中市豐原區中山路４５０號,"牙醫一般科,",0,0,0,0,0,0,0,0,3,0,0,0,0,0,0,0,0,0,0,0,0,0,0,0,0,0,0,豐原區,24.248013,120.715629
3536012855,呂維國婦產科診所,(04)25262889,臺中市豐原區,臺中市豐原區中正路346號及348號〈1樓2樓3樓4樓〉,"兒科,婦產科,",0,0,0,0,0,0,8,0,0,2,0,8,5,0,0,0,0,0,0,3,0,0,0,0,0,0,0,豐原區,24.2512881,120.7132574
3536013067,大順診所,04-25250667,臺中市豐原區,臺中市豐原區北陽路138號1-4樓及豐東路239號2樓,"內科,",0,0,0,0,0,0,1,0,0,1,0,5,0,0,0,0,0,0,0,0,0,0,0,0,0,0,0,豐原區,24.2514539,120.7331207
3736010739,豐原仁愛牙醫診所,04-25253522,臺中市豐原區,臺中市豐原區中正路326號1樓,"牙醫一般科,",0,0,0,0,0,0,0,0,1,0,0,1,0,0,0,0,0,0,0,0,0,0,0,0,0,0,0,豐原區,24.2511248,120.7135181
3736012251,顏國書牙醫診所,04-25204562,臺中市豐原區,臺中市豐原區源豐路52號1、2樓,"牙醫一般科,",0,0,0,0,0,0,0,0,5,0,0,0,0,0,0,0,0,0,0,0,0,0,0,0,0,0,0,豐原區,24.252457,120.7160219
3536013003,林宜民診所,04-25209199,臺中市豐原區,臺中市豐原區中山路393號1樓,"內科,",0,0,0,0,0,0,2,0,0,0,0,3,1,0,0,0,0,0,0,0,0,0,0,0,0,0,1,豐原區,24.250121,120.714434
1536011276,新惠生醫院,04-25228792,臺中市豐原區,臺中市豐原區圓環北路一段319號,"外科,婦產科,",0,0,0,0,0,0,11,0,0,4,0,55,9,0,0,5,0,0,0,8,0,0,0,0,0,0,0,豐原區,24.2582524,120.7193461
1536011294,祥恩醫院,04 25255522,臺中市豐原區,臺中市豐原區中興路３５號,"家庭醫學科,內科,",0,0,0,0,0,0,6,0,0,2,0,23,3,0,0,1,0,0,0,1,0,0,0,3,0,0,1,豐原區,24.2481506,120.7176096
1836011110,天心中醫醫院,04 5275666,臺中市豐原區,臺中市豐原區田心里中山路２０６號,"中醫一般科,",0,0,0,0,0,0,0,5,0,2,0,6,0,0,0,0,0,0,0,0,0,0,0,0,0,0,0,豐原區,24.2402871,120.7124515
3536012668,林信樺眼科診所,04-25257315,臺中市豐原區,臺中市豐原區中正路316號1、2樓,"眼科,",0,0,0,0,1,0,3,0,0,2,0,2,0,0,0,0,0,0,0,0,0,0,0,0,0,0,0,豐原區,24.2511129,120.7138094
3536012702,三豐診所,04-25287379,臺中市豐原區,臺中市豐原區中正路五四三號五樓,"內科,",0,0,0,0,0,0,2,0,0,0,0,5,1,0,0,0,0,0,0,0,0,0,0,0,0,0,0,豐原區,24.2506646,120.7113248
3536012775,淇祥診所,04-25289595,臺中市豐原區,臺中市豐原區中正路253號1樓,"精神科,",0,0,0,0,0,0,1,0,0,0,0,0,0,0,0,0,0,0,0,0,0,0,0,0,0,0,0,豐原區,24.2514033,120.7168639
3536012793,劉銘郎內科診所,04 25159418,臺中市豐原區,臺中市豐原區中正路83號,"內科,",0,0,0,0,0,0,1,0,0,1,0,1,0,0,0,1,0,0,0,0,0,0,0,0,0,0,0,豐原區,24.252268,120.721452
3536012837,林余安耳鼻喉科診所,04-25158008,臺中市豐原區,臺中市豐原區興安街1號1樓、2樓,"耳鼻喉科,",0,0,0,0,0,0,3,0,0,2,1,2,0,0,0,0,0,0,0,0,0,0,0,0,0,0,0,豐原區,24.2482697,120.7146782
3536012873,保生診所,(04)25222367,臺中市豐原區,臺中市豐原區中正路317號,"內科,",0,0,0,0,0,0,1,0,0,2,0,1,0,0,0,0,0,0,0,0,0,0,0,0,0,0,0,豐原區,24.2511456,120.7153482
3536012908,健新復健科診所,04-25273048,臺中市豐原區,臺中市豐原區中正路440號1樓、2樓,"復健科,",4,0,0,0,0,0,1,0,0,0,0,0,0,0,0,0,0,3,4,0,0,1,2,0,0,0,0,豐原區,24.2507458,120.7104508
3536012917,成功診所,04 25250073,臺中市豐原區,臺中市豐原區成功路265號1樓,"兒科,",0,0,0,0,0,0,1,0,0,1,0,1,0,0,0,0,0,0,0,0,0,0,0,0,0,0,0,豐原區,24.2468792,120.7073949
3536012953,豐原趙內科診所,04-25200226,臺中市豐原區,臺中市豐原區圓環東路615號1樓,"內科,",0,0,0,0,0,0,1,0,0,0,0,1,1,0,0,0,0,0,0,0,0,0,0,0,0,0,0,豐原區,24.2507504,120.7282169
3536012962,大安診所,04-25157227,臺中市豐原區,臺中市豐原區中正路293號,"家庭醫學科,",0,0,0,0,0,0,1,0,0,0,1,1,0,0,0,0,0,0,0,0,0,0,0,0,0,0,0,豐原區,24.2514311,120.7159698
3536012971,興豐內科診所,(04)25255822,臺中市豐原區,臺中市豐原區豐勢路一段2號1、2樓,"內科,",0,0,0,0,0,0,2,0,0,0,0,10,0,0,0,0,0,0,0,0,0,0,0,0,0,0,0,豐原區,24.2516001,120.7222427
3803010052,寶和堂中醫診所,04-2532-7866,臺中市豐原區,臺中市豐原區豐原大道1段635號1樓,"中醫一般科,",0,0,0,0,0,0,0,1,0,0,0,0,0,0,0,0,0,0,0,0,0,0,0,0,0,0,0,豐原區,24.2494317,120.7032893
3703010014,元佑牙醫診所,04-25157733,臺中市豐原區,臺中市豐原區中山路415號1樓,"牙醫一般科,",0,0,0,0,0,0,0,0,4,0,0,0,0,0,0,0,0,0,0,0,0,0,0,0,0,0,0,豐原區,24.250562,120.714216
3703010023,若恩牙醫診所,04-25221813,臺中市豐原區,臺中市豐原區圓環東路265號1樓,"牙醫一般科,",0,0,0,0,0,0,0,0,1,0,0,0,0,0,0,0,0,0,0,0,0,0,0,0,0,0,0,豐原區,24.244217,120.722286
3503010065,慈生婦產科診所,04-2526-8365 或 0955-525-493,臺中市豐原區,臺中市豐原區陽明里府前街25號,"家庭醫學科,婦產科,",0,0,0,0,0,0,1,0,0,0,0,0,0,0,0,0,0,0,0,0,0,0,0,0,0,0,0,豐原區,24.2492509,120.719697
3503010047,豐原惠生小兒科診所,04-25289981,臺中市豐原區,臺中市豐原區圓環北路一段319-1號1樓,"兒科,",0,0,0,0,0,0,3,0,0,1,1,3,1,0,0,0,0,0,0,0,0,0,0,0,0,0,0,豐原區,24.2582524,120.7193461
3836012084,豐洲進安中醫診所,04-25247829,臺中市豐原區,臺中市豐原區圓環北路一段２８９號１樓、２樓,"中醫一般科,",0,0,0,0,0,0,0,2,0,0,0,1,0,0,0,0,0,0,0,0,0,0,0,0,0,0,0,豐原區,24.2579905,120.7190585
3503010038,林永祥小兒科診所,04-25250995,臺中市豐原區,臺中市豐原區中正路89號1樓,"兒科,",0,0,0,0,0,0,2,0,0,2,0,1,0,0,0,0,0,0,0,0,0,0,0,0,0,0,0,豐原區,24.252206,120.721383
3803010034,京聖中醫診所,04-25256321,臺中市豐原區,臺中市豐原區中山路435號1樓,"中醫一般科,",0,0,0,0,0,0,0,1,0,0,0,0,0,0,0,0,0,0,0,0,0,0,0,0,0,0,0,豐原區,24.2515019,120.7141693
3536010468,張小兒科內科診所,04 25223968,臺中市豐原區,臺中市豐原區三民路２０９號,"內科,兒科,西醫一般科,",0,0,0,0,0,0,1,0,0,1,0,0,0,0,0,0,0,0,0,0,0,0,0,0,0,0,0,豐原區,24.2529949,120.7168405
3536010511,豐原惠民診所,04 25268995,臺中市豐原區,臺中市豐原區圓環東路４９７號,"西醫一般科,",0,0,0,0,0,0,1,0,0,0,1,0,0,0,0,0,0,0,0,0,0,0,0,0,0,0,0,豐原區,24.2483593,120.7269089
3536011125,呂岡原聯合診所,04 25228302,臺中市豐原區,臺中市豐原區三民路１７４號,"家庭醫學科,婦產科,",0,0,0,0,0,0,2,0,0,0,0,0,0,0,0,0,0,0,0,0,0,0,0,0,0,0,0,豐原區,24.253575,120.718483
3536011189,重德診所,04 25263709,臺中市豐原區,臺中市豐原區中山路489號1、2樓,"外科,骨科,",0,0,0,0,0,0,2,0,0,1,0,4,0,0,0,0,0,2,0,1,0,0,0,0,0,0,0,豐原區,24.25318,120.7139042
3536011349,曾眼科診所,04 25288992,臺中市豐原區,臺中市豐原區中正路９０號,"眼科,",0,0,0,0,1,2,3,0,0,2,0,1,0,0,0,0,0,0,0,0,0,0,0,0,0,0,0,豐原區,24.2524162,120.7211005
3736012288,瑞比牙醫診所,04-25261024,臺中市豐原區,臺中市豐原區圓環東路477號1樓,"牙醫一般科,",0,0,0,0,0,0,0,0,1,0,0,0,0,0,0,0,0,0,0,0,0,0,0,0,0,0,0,豐原區,24.2480026,120.726695
3836010133,龍安中醫診所,04-25273660,臺中市豐原區,臺中市豐原區樂天街１３３號,"中醫一般科,",0,0,0,0,0,0,0,1,0,0,0,0,0,0,0,0,0,0,0,0,0,0,0,0,0,0,0,豐原區,24.2445824,120.7188564
3836010188,永芳中醫診所,04 25263689,臺中市豐原區,臺中市豐原區田心路二段２５６號,"中醫一般科,",0,0,0,0,0,0,0,1,0,0,0,0,0,0,0,0,0,0,0,0,0,0,0,0,0,0,0,豐原區,24.2383641,120.7222551
3836010259,東興中醫診所,04-25236115,臺中市豐原區,臺中市豐原區向陽路３３７號,"中醫一般科,",0,0,0,0,0,0,0,1,0,0,0,0,0,0,0,0,0,0,0,0,0,0,0,0,0,0,0,豐原區,24.250386,120.730377
3836010311,坤記中醫診所,04-25223967,臺中市豐原區,臺中市豐原區信義街７８號,"中醫一般科,",0,0,0,0,0,0,0,1,0,0,0,0,0,0,0,0,0,0,0,0,0,0,0,0,0,0,0,豐原區,24.2502339,120.7189985
3836010384,翔泰中醫診所,04-25292828,臺中市豐原區,臺中市豐原區西勢路１２７號,"中醫一般科,",0,0,0,0,0,0,0,1,0,0,0,0,0,0,0,0,0,0,0,0,0,0,0,0,0,0,0,豐原區,24.2449972,120.7083449
3736010391,博仁牙醫診所,04 25252489,臺中市豐原區,臺中市豐原區田心路二段２３０號,"牙醫一般科,",0,0,0,0,0,0,0,0,1,0,0,0,0,0,0,0,0,0,0,0,0,0,0,0,0,0,0,豐原區,24.238796,120.721886
3736010462,賴牙醫診所,04 25299393,臺中市豐原區,臺中市豐原區府前街八十七之八號,"牙醫一般科,",0,0,0,0,0,0,0,0,1,0,0,0,0,0,0,0,0,0,0,0,0,0,0,0,0,0,0,豐原區,24.2495057,120.7176701
3703010112,御耀美學牙醫診所,04-25250909,臺中市豐原區,臺中市豐原區中正路572之1號1樓,"牙醫一般科,",0,2,0,0,0,0,0,0,1,0,0,0,0,0,0,0,0,0,0,0,0,0,0,0,0,0,0,豐原區,24.2502487,120.707088
3503010341,璽悅診所,04-25252555,臺中市豐原區,臺中市豐原區豐原大道四段463號1樓,"西醫一般科,",0,0,0,0,0,0,1,0,0,0,0,1,0,0,0,0,0,0,0,0,0,0,0,0,0,0,0,豐原區,24.2491128,120.737054
3503010289,陸建民診所,04-25271688,臺中市豐原區,臺中市豐原區中山路405號1樓、2樓,"內科,神經科,",0,0,0,0,0,0,2,0,0,0,0,2,0,0,0,0,0,0,0,0,0,0,0,0,0,0,0,豐原區,24.250378,120.714361
3503010270,璞心診所,04-25226977,臺中市豐原區,臺中市豐原區新生北路206號1樓(部分),"內科,",0,0,0,0,0,0,1,0,0,0,0,1,1,0,0,0,0,0,0,0,0,0,0,0,0,0,0,豐原區,24.2551476,120.7219279
3503010225,周振熙骨科外科專科診所,04-25220739,臺中市豐原區,臺中市豐原區圓環東路640號1、2、3樓,"外科,骨科,",0,0,0,0,0,0,1,0,0,0,0,0,0,0,0,0,0,2,0,0,0,0,0,0,0,0,0,豐原區,24.2501315,120.7283243
3703010078,安邑美學牙醫診所,04-25346681,臺中市豐原區,臺中市豐原區豐原大道一段637號1樓、2樓,"牙醫一般科,",0,0,0,0,0,0,0,0,3,0,0,0,0,0,0,0,0,0,0,0,0,0,0,0,0,0,0,豐原區,24.2373374,120.704981
3503010252,中英診所,04-25131680,臺中市豐原區,臺中市豐原區中正路193號1~5樓,"家庭醫學科,內科,",0,0,0,0,0,0,3,0,0,2,0,11,0,0,0,0,0,0,0,0,0,0,0,0,0,0,0,豐原區,24.2514515,120.7185176
3803010132,黃柯埠中醫診所,04-25280910,臺中市豐原區,臺中市豐原區中山路552號1樓,"中醫一般科,",0,0,0,0,0,0,0,1,0,0,0,0,0,0,0,0,0,0,0,0,0,0,0,0,0,0,0,豐原區,24.2526947,120.7144896
3503010190,仁德診所,04-25278561,臺中市豐原區,臺中市豐原區中山路295號1、2、3、4樓,"內科,",0,0,0,0,0,0,2,0,0,0,0,12,0,0,0,0,0,0,0,0,0,0,0,0,0,0,1,豐原區,24.24766,120.714977
3503010234,呂振升內科診所,04-25220739,臺中市豐原區,臺中市豐原區圓環東路656號1樓,"內科,",0,0,0,0,0,0,1,0,0,0,0,3,0,0,0,0,0,0,0,0,0,0,0,0,0,0,1,豐原區,24.2503544,120.7284129
1503010036,漢忠醫院,(04)25222209,臺中市豐原區,臺中市豐原區中正路218號、212巷1-1號,"家庭醫學科,內科,骨科,復健科,",0,0,0,0,0,0,5,0,0,3,0,16,4,0,0,3,0,4,3,3,0,2,0,0,0,0,1,豐原區,24.2522135,120.7178991
1503010027,杏豐醫院,(04)25234112,臺中市豐原區,臺中市豐原區三民路106號,"家庭醫學科,內科,外科,骨科,麻醉科,",0,0,0,0,0,0,7,0,0,4,0,22,3,0,0,3,0,2,0,3,0,2,0,0,0,0,0,豐原區,24.2537099,120.7201796
3803010123,鈺慈中醫診所,04-25292229,臺中市豐原區,臺中市豐原區圓環東路657號1樓、2樓,"中醫一般科,",0,0,0,0,0,0,0,1,0,0,0,1,0,0,0,0,0,0,0,0,0,0,0,0,0,0,0,豐原區,24.2517012,120.7287477
3703010050,旭品牙醫診所,04-25270571,臺中市豐原區,臺中市豐原區圓環南路134號1樓,"牙醫一般科,",0,0,0,0,0,0,0,0,1,0,0,0,0,0,0,0,0,0,0,0,0,0,0,0,0,0,0,豐原區,24.247501,120.710422
3803010150,蕙心中醫診所,04-25253919,臺中市豐原區,臺中市豐原區中山路341號、343號1樓,"中醫一般科,",0,0,0,0,0,0,0,5,0,0,0,2,0,0,0,0,0,0,0,0,0,0,0,0,0,0,0,豐原區,24.2488299,120.7149306
3503010154,楊啟坤耳鼻喉科診所,04-25279800,臺中市豐原區,臺中市豐原區豐東路16號1樓,"耳鼻喉科,",0,0,0,0,0,0,3,0,0,0,0,6,2,0,0,0,0,0,0,0,0,0,0,0,0,0,0,豐原區,24.2451435,120.7283871
3803010070,毫光堂中醫診所,04-2522-7250,臺中市豐原區,臺中市豐原區北陽路132號1樓,"中醫一般科,",0,0,0,0,0,0,0,1,0,0,0,0,0,0,0,0,0,0,0,0,0,0,0,0,0,0,0,豐原區,24.2515577,120.7328162
3803010141,弘原中醫診所,04-25288666,臺中市豐原區,臺中市豐原區三民路85號1、2樓,"中醫一般科,",0,0,0,0,0,0,0,1,0,0,0,1,0,0,0,0,0,0,0,0,0,0,0,0,0,0,0,豐原區,24.2534306,120.7201403
3803010114,誠佑中醫診所,04-25206688,臺中市豐原區,臺中市豐原區圓環東路393號1樓,"中醫一般科,",0,0,0,0,0,0,0,1,0,0,0,0,1,0,0,0,0,0,0,0,0,0,0,0,0,0,0,豐原區,24.245949,120.725264
3703010087,皓品牙醫診所,04-25273880,臺中市豐原區,臺中市豐原區豐西街1號1、2樓,"牙醫一般科,",0,0,0,0,0,0,0,0,4,0,0,0,0,0,0,0,0,0,0,0,0,0,0,0,0,0,0,豐原區,24.2516118,120.7139498
3803010187,乙皓中醫診所,04-25283168,臺中市豐原區,臺中市豐原區圓環北路一段184號1樓,"中醫一般科,",0,0,0,0,0,0,0,1,0,0,0,0,0,0,0,0,0,0,0,0,0,0,0,0,0,0,0,豐原區,24.2564551,120.7171218
3836010660,林光祥中醫診所,04-25252663,臺中市豐原區,臺中市豐原區信義街１９號,"中醫一般科,",0,0,0,0,0,0,0,1,0,0,0,0,0,0,0,0,0,0,0,0,0,0,0,0,0,0,0,豐原區,24.248873,120.718715
3736012126,明潔牙醫診所,04-25266336,臺中市豐原區,臺中市豐原區自強南街二四號,"牙醫一般科,",0,0,0,0,0,0,0,0,1,0,0,0,0,0,0,0,0,0,0,0,0,0,0,0,0,0,0,豐原區,24.2447773,120.7207577
3736012135,張恩維牙醫診所,04-25151562,臺中市豐原區,臺中市豐原區成功路14號,"牙醫一般科,",0,0,0,0,0,0,0,0,1,0,0,0,0,0,0,0,0,0,0,0,0,0,0,0,0,0,0,豐原區,24.2422007,120.7125301
3736012144,日榮牙醫診所,04-25278745,臺中市豐原區,臺中市豐原區中正路711號,"牙醫一般科,",0,0,0,0,0,0,0,0,1,0,0,0,0,0,0,0,0,0,0,0,0,0,0,0,0,0,0,豐原區,24.249046,120.7014923
3736010748,豐原名揚牙醫診所,04 25206788,臺中市豐原區,臺中市豐原區圓環東路６７８號四樓,"牙醫一般科,",0,0,0,0,0,0,0,0,3,0,0,0,0,0,0,0,0,0,0,0,0,0,0,0,0,0,0,豐原區,24.2508677,120.7287137
3736010793,微笑牙醫診所,04 25338506,臺中市豐原區,臺中市豐原區中山路１５８號,"牙醫一般科,",0,0,0,0,0,0,0,0,1,0,0,0,0,0,0,0,0,0,0,0,0,0,0,0,0,0,0,豐原區,24.2393809,120.7115677
3736012153,祥皓牙醫診所,04-25270559,臺中市豐原區,臺中市豐原區育英路27號,"牙醫一般科,",0,0,0,0,0,0,0,0,1,0,0,0,0,0,0,0,0,0,0,0,0,0,0,0,0,0,0,豐原區,24.2433267,120.7164837
3736012199,大恩美牙醫診所,04-25255599,臺中市豐原區,臺中市豐原區永康路56及58號,"牙醫一般科,",0,0,0,0,0,0,0,0,1,0,0,0,0,0,0,0,0,0,0,0,0,0,0,0,0,0,0,豐原區,24.2435949,120.7272281
3836010151,豐原堂中醫診所,04-25279337,臺中市豐原區,臺中市豐原區忠孝街１０３號,"中醫一般科,",0,0,0,0,0,0,0,1,0,0,0,0,0,0,0,0,0,0,0,0,0,0,0,0,0,0,0,豐原區,24.2540415,120.7159648
3836010222,立華內科中醫診所,04-25225601,臺中市豐原區,臺中市豐原區中正路３３２號,"中醫一般科,",0,0,0,0,0,0,0,1,0,0,0,0,0,0,0,0,0,0,0,0,0,0,0,0,0,0,0,豐原區,24.2511719,120.7134322
3836010268,全生眼科中醫診所,04-25225561,臺中市豐原區,臺中市豐原區源豐路117號,"中醫一般科,",0,0,0,0,0,0,0,1,0,0,0,0,0,0,0,0,0,0,0,0,0,0,0,0,0,0,0,豐原區,24.2535397,120.7167853
3836010277,順安中醫診所,04-25247227,臺中市豐原區,臺中市豐原區南陽路３９８號,"中醫一般科,",0,0,0,0,0,0,0,1,0,0,0,0,0,0,0,0,0,0,0,0,0,0,0,0,0,0,0,豐原區,24.246872,120.724746
3836010286,健益中醫診所,04-25233757,臺中市豐原區,臺中市豐原區水源路６２３號,"中醫一般科,",0,0,0,0,0,0,0,1,0,0,0,0,0,0,0,0,0,0,0,0,0,0,0,0,0,0,0,豐原區,24.2548567,120.7282455
3836010446,順智謜中醫診所,04-25228468,臺中市豐原區,臺中市豐原區自立街１２３號,"中醫一般科,",0,0,0,0,0,0,0,1,0,0,0,0,0,0,0,0,0,0,0,0,0,0,0,0,0,0,0,豐原區,24.2506593,120.7236589
3836010491,健福中醫診所,04-25251956,臺中市豐原區,臺中市豐原區中正路三三六號,"中醫一般科,",0,0,0,0,0,0,0,1,0,0,0,0,0,0,0,0,0,0,0,0,0,0,0,0,0,0,0,豐原區,24.2506646,120.7113248
3536010520,潘耳鼻喉科診所,04 25226750,臺中市豐原區,臺中市豐原區西勢里中山路４０７號,"耳鼻喉科,",0,0,0,0,0,0,1,0,0,1,0,0,0,0,0,0,0,0,0,0,0,0,0,0,0,0,0,豐原區,24.2504883,120.7144999
3536010539,張清源耳鼻喉科診所,04 25275240,臺中市豐原區,臺中市豐原區三民路９６號,"耳鼻喉科,",0,0,0,0,0,0,1,0,0,0,0,0,0,0,0,0,0,0,0,0,0,0,0,0,0,0,0,豐原區,24.2537801,120.7204732
3536010593,敏祥診所,04 25225149,臺中市豐原區,臺中市豐原區源豐路55號1樓,"家庭醫學科,兒科,",0,0,0,0,0,0,1,0,0,0,1,0,0,0,0,0,0,0,0,0,0,0,0,0,0,0,0,豐原區,24.2525862,120.7157747
3536010039,謝東賢耳鼻喉科診所,04 25268211,臺中市豐原區,臺中市豐原區中正路１０６號,"耳鼻喉科,",0,0,0,0,0,0,2,0,0,0,0,0,1,0,0,0,0,0,0,0,0,0,0,0,0,0,0,豐原區,24.252133,120.720651
3536010146,明義內科小兒科診所,04 25222529,臺中市豐原區,臺中市豐原區富春街１００號,"內科,兒科,",0,0,0,0,0,0,1,0,0,0,0,0,0,0,0,0,0,0,0,0,0,0,0,0,0,0,0,豐原區,24.251544,120.717814
3536010262,許耳鼻喉科診所,04 25235525,臺中市豐原區,臺中市豐原區中正路９８號,"耳鼻喉科,",0,0,0,0,0,0,1,0,0,0,0,0,0,0,0,0,0,0,0,0,0,0,0,0,0,0,0,豐原區,24.2523684,120.7208794
3536010271,張文雄內小兒科診所,04 5265875,臺中市豐原區,臺中市豐原區民生街６１號,"內科,兒科,",0,0,0,0,0,0,1,0,0,0,0,0,0,0,0,0,0,0,0,0,0,0,0,0,0,0,0,豐原區,24.247918,120.7169538
3536010360,基成內兒科診所,04 25232730,臺中市豐原區,臺中市豐原區中山路３６９號,"內科,兒科,",0,0,0,0,0,0,1,0,0,1,0,1,0,0,0,0,0,0,0,0,0,0,0,0,0,0,0,豐原區,24.2495399,120.7145738
3536010388,吳幸源皮膚科診所,04-25275700,臺中市豐原區,臺中市豐原區中正路226號1樓,"皮膚科,",0,0,0,0,0,0,1,0,0,1,0,1,0,0,0,0,0,0,0,0,0,0,0,0,0,0,0,豐原區,24.252111,120.717267
3536010459,林內小兒科診所,04 25238638,臺中市豐原區,臺中市豐原區中正路２４７號,"內科,兒科,",0,0,0,0,0,0,1,0,0,0,0,0,0,0,0,0,0,0,0,0,0,0,0,0,0,0,0,豐原區,24.2513941,120.7169733
3736010917,維恩牙醫診所,04 25203233,臺中市豐原區,臺中市豐原區育仁路一五八號,"牙醫一般科,",0,0,0,0,0,0,0,0,1,0,0,0,0,0,0,0,0,0,0,0,0,0,0,0,0,0,0,豐原區,24.2411255,120.7169187
3736012037,昇陽牙醫診所,04-25290529,臺中市豐原區,臺中市豐原區南陽路二八九號,"牙醫一般科,",0,0,0,0,0,0,0,0,1,0,0,1,0,0,0,0,0,0,0,0,0,0,0,0,0,0,0,豐原區,24.2445698,120.7283098
3736010060,友仁牙醫診所,04 25265657,臺中市豐原區,臺中市豐原區府前街６１－７號,"牙醫一般科,",0,0,0,0,0,0,0,0,1,0,0,0,0,0,0,0,0,0,0,0,0,0,0,0,0,0,0,豐原區,24.2495121,120.7184175
3736010088,信琦牙醫診所,04- 25243471,臺中市豐原區,臺中市豐原區中正路412號1樓,"牙醫一般科,",0,0,0,0,0,0,0,0,3,0,0,0,0,0,0,0,0,0,0,0,0,0,0,0,0,0,0,豐原區,24.2509489,120.711563
3736010122,光南牙醫診所,04 25120888,臺中市豐原區,臺中市豐原區中正路３２９號,"牙醫一般科,",0,0,0,0,0,0,0,0,2,0,0,0,0,0,0,0,0,0,0,0,0,0,0,0,0,0,0,豐原區,24.2509605,120.7150616
3736010131,嘉亮牙科診所,04 25222266,臺中市豐原區,臺中市豐原區中正路２３７號,"牙醫一般科,",0,0,0,0,0,0,0,0,1,0,0,0,0,0,0,0,0,0,0,0,0,0,0,0,0,0,0,豐原區,24.2517697,120.7172133
3736010382,向陽牙醫診所,04 25232742,臺中市豐原區,臺中市豐原區圓環東路６１１號,"牙醫一般科,",0,0,0,0,0,0,0,0,1,0,0,0,0,0,0,0,0,0,0,0,0,0,0,0,0,0,0,豐原區,24.2506922,120.7281677
3736010426,白光牙醫診所,04 25286626,臺中市豐原區,臺中市豐原區中興路122之1號1、2樓,"牙醫一般科,",0,0,0,0,0,0,0,0,1,0,0,0,0,0,0,0,0,0,0,0,0,0,0,0,0,0,0,豐原區,24.2482647,120.7149197
3736010453,東明牙醫診所,04 25282309,臺中市豐原區,臺中市豐原區忠孝街９１號,"牙醫一般科,",0,0,0,0,0,0,0,0,1,0,0,0,0,0,0,0,0,0,0,0,0,0,0,0,0,0,0,豐原區,24.253724,120.715905
3736010613,帝銓牙醫診所,04 25233273,臺中市豐原區,臺中市豐原區大仁街６４號,"牙醫一般科,",0,0,0,0,0,0,0,0,1,0,0,0,0,0,0,0,0,0,0,0,0,0,0,0,0,0,0,豐原區,24.2563582,120.7198357
3736010631,良美牙醫診所,04 25204370,臺中市豐原區,臺中市豐原區信義街１６８號,"牙醫一般科,",0,0,0,0,0,0,0,0,1,0,0,0,0,0,0,0,0,0,0,0,0,0,0,0,0,0,0,豐原區,24.2538223,120.7187747
3736010659,仁安牙醫診所,04 25205069,臺中市豐原區,臺中市豐原區中正路64號,"牙醫一般科,",0,0,0,0,0,0,0,0,3,0,0,0,0,0,0,0,0,0,0,0,0,0,0,0,0,0,0,豐原區,24.252916,120.721438
3736010686,上上牙醫診所,04 25251313,臺中市豐原區,臺中市豐原區府前街１８０號,"牙醫一般科,",0,0,0,0,0,0,0,0,1,0,0,0,0,0,0,0,0,0,0,0,0,0,0,0,0,0,0,豐原區,24.2493816,120.7156043
3736012046,胡慧玲牙醫診所,04-25290181,臺中市豐原區,臺中市豐原區南陽路314號,"牙醫一般科,",0,0,0,0,0,0,0,0,1,0,0,0,0,0,0,0,0,0,0,0,0,0,0,0,0,0,0,豐原區,24.2459916,120.7263046
3536010771,謝錦松內小兒科診所,04 5241310,臺中市豐原區,臺中市豐原區中正路３９４號,"內科,兒科,",0,0,0,0,0,0,1,0,0,1,0,0,0,0,0,0,0,0,0,0,0,0,0,0,0,0,0,豐原區,24.250923,120.712037
3536010833,洪榮信診所,04 25287157,臺中市豐原區,臺中市豐原區中正路８８８號,"婦產科,",0,0,0,0,0,0,1,0,0,0,0,0,1,0,0,0,0,0,0,0,0,0,0,0,0,0,0,豐原區,24.2492477,120.7002192
3536010879,呂揚德內科診所,04-25276200,臺中市豐原區,臺中市豐原區中正路104-1號,"內科,",0,0,0,0,0,0,1,0,0,1,0,3,0,0,0,0,0,0,0,0,0,0,0,0,0,0,0,豐原區,24.2521792,120.7208911
3536010888,紀鴻明診所,04 25260781,臺中市豐原區,臺中市豐原區圓環東路３８１號,"內科,",0,0,0,0,0,0,1,0,0,0,1,0,0,0,0,0,0,0,0,0,0,0,0,0,0,0,0,豐原區,24.2458381,120.7249754
3536010897,長庚黃啟昌診所,04 25287928,臺中市豐原區,臺中市豐原區中正路２８９號,"兒科,",0,0,0,0,0,0,2,0,0,0,1,0,0,0,0,0,0,0,0,0,0,0,0,0,0,0,0,豐原區,24.2513808,120.7160512
3536010913,中庚聯合診所,04 25295766,臺中市豐原區,臺中市豐原區信義街２６巷７號,"西醫一般科,",0,0,0,0,0,0,1,0,0,1,0,1,1,0,0,0,0,0,0,0,0,0,0,0,0,0,0,豐原區,24.2489022,120.7192323
3536010940,詹賜鎮診所,04 25250457,臺中市豐原區,臺中市豐原區三民路１７８號,"西醫一般科,",0,0,0,0,0,0,1,0,0,0,0,0,0,0,0,0,0,0,0,0,0,0,0,0,0,0,0,豐原區,24.253561,120.718384
3536010986,許慶芳耳鼻喉科診所,04 25292857,臺中市豐原區,臺中市豐原區中山路506號,"兒科,耳鼻喉科,",0,0,0,0,0,0,4,0,0,0,0,2,0,0,0,0,0,0,0,0,0,0,0,0,0,0,0,豐原區,24.250231,120.714889
3536011018,傅憲舫婦產科診所,04 25204180,臺中市豐原區,臺中市豐原區圓環東路６０５號,"婦產科,",0,0,0,0,0,0,1,0,0,1,0,0,1,0,0,0,0,0,0,0,0,0,0,0,0,0,0,豐原區,24.2505531,120.7281071
3536011107,蔡眼科診所,04- 22598861,臺中市豐原區,臺中市豐原區中山路四○八號,"眼科,",0,0,0,0,0,0,1,0,0,0,0,0,0,0,0,0,0,0,0,0,0,0,0,0,0,0,0,豐原區,24.2450846,120.7144022
3536011116,林金生耳鼻喉科診所,04 25265951,臺中市豐原區,臺中市豐原區田心路一段１４１號,"耳鼻喉科,",0,0,0,0,0,0,1,0,0,1,0,0,0,0,0,0,0,0,0,0,0,0,0,0,0,0,0,豐原區,24.2450737,120.7179954
3536011143,延吉診所,04 25243776,臺中市豐原區,臺中市豐原區中正路３３８號,"家庭醫學科,",0,0,0,0,0,0,1,0,0,0,1,1,0,0,0,0,0,0,0,0,0,0,0,0,0,0,0,豐原區,24.2510402,120.7133217
3536011161,梅明因診所,04-25257965,臺中市豐原區,臺中市豐原區中正路350號1、2樓,"神經科,",0,0,0,0,0,0,2,0,0,0,0,2,0,0,0,0,0,1,0,0,0,2,0,0,0,0,0,豐原區,24.2509763,120.7130515
3536011170,天益診所,04 25222532,臺中市豐原區,臺中市豐原區和平街３３號,"內科,",0,0,0,0,0,0,1,0,0,0,0,0,0,0,0,0,0,0,0,0,0,0,0,0,0,0,0,豐原區,24.2529303,120.7198037
3536011198,建忠眼科診所,04 25257430,臺中市豐原區,臺中市豐原區仁愛街２號一樓及二樓,"眼科,",0,0,0,0,0,0,1,0,0,1,0,0,0,0,0,0,0,0,0,0,0,0,0,0,0,0,0,豐原區,24.252266,120.717738
3536011250,李長模皮膚科診所,04 25250920,臺中市豐原區,臺中市豐原區中正路124號1樓,"皮膚科,",0,0,0,0,0,0,3,0,0,4,1,1,0,0,0,0,0,0,0,0,0,0,0,0,0,0,0,豐原區,24.251804,120.7203698
3536011401,佳幼診所,04 25296336,臺中市豐原區,臺中市豐原區中正路二六四號,"兒科,",0,0,0,0,0,0,1,0,0,0,0,0,0,0,0,0,0,0,0,0,0,0,0,0,0,0,0,豐原區,24.2506646,120.7113248
3536011465,吳志修耳鼻喉科診所,04 25120295,臺中市豐原區,臺中市豐原區中山路345、347號1樓,"兒科,耳鼻喉科,",0,0,0,0,0,0,4,0,0,0,0,0,2,0,0,0,0,0,0,0,0,0,0,0,0,0,0,豐原區,24.2489781,120.7148832
3536012480,王榮祿皮膚科診所,04-25154348,臺中市豐原區,臺中市豐原區圓環東路91號,"皮膚科,",0,0,0,0,0,0,3,0,0,2,0,4,0,0,0,0,0,0,0,0,0,0,0,0,0,0,0,豐原區,24.2439662,120.7177783
3536012506,王思博耳鼻喉科診所,04-25155166,臺中市豐原區,臺中市豐原區中正路272號1樓、2樓,"耳鼻喉科,",0,0,0,0,0,0,3,0,0,2,0,1,0,0,0,0,0,0,0,0,0,0,0,0,0,0,0,豐原區,24.2518165,120.7160388
3536012560,親親診所,04 25312345,臺中市豐原區,臺中市豐原區中山路一六二號,"神經外科,",0,0,0,0,0,0,1,0,0,1,0,1,1,0,0,0,0,0,0,0,0,0,0,0,0,0,0,豐原區,24.2450846,120.7144022
3536012613,優生聯合婦產科診所,04 25273395,臺中市豐原區,臺中市豐原區中正路282號1樓、2樓、3樓、4樓,"婦產科,",0,0,0,0,0,0,3,0,0,1,0,4,0,0,0,0,0,0,0,0,0,0,0,0,0,0,0,豐原區,24.2516969,120.7159269
3736012162,禾豐牙醫診所,04-25155337,臺中市豐原區,臺中市豐原區中山路506-1號,"牙醫一般科,",0,0,0,0,0,0,0,0,1,0,0,0,0,0,0,0,0,0,0,0,0,0,0,0,0,0,0,豐原區,24.250215,120.7148597
3536010806,謝耳鼻喉科診所,04 25334908,臺中市豐原區,臺中市豐原區中山路１４３－１號,"耳鼻喉科,",0,0,0,0,0,0,1,0,0,0,1,0,0,0,0,0,0,0,0,0,0,0,0,0,0,0,0,豐原區,24.2393706,120.7111014
3836011952,光榮中醫診所,04-25206811,臺中市豐原區,臺中市豐原區中山路四八二號,"中醫一般科,",0,0,0,0,0,0,0,1,0,1,0,0,0,0,0,0,0,0,0,0,0,0,0,0,0,0,0,豐原區,24.2450846,120.7144022
3736010908,康潔牙醫診所,04 25288887,臺中市豐原區,臺中市豐原區豐東路二一四號,"牙醫一般科,",0,0,0,0,0,0,0,0,2,0,0,0,0,0,0,0,0,0,0,0,0,0,0,0,0,0,0,豐原區,24.2506677,120.7325356
3736010944,芳鄰牙醫診所,04-25293418,臺中市豐原區,臺中市豐原區大明路81號1樓,"牙醫一般科,",0,0,0,0,0,0,0,0,1,0,0,0,0,0,0,0,0,0,0,0,0,0,0,0,0,0,0,豐原區,24.2403821,120.7092226
2336010016,臺中市豐原區衛生所,04-25261170,臺中市豐原區,臺中市豐原區中興路136號,"西醫一般科,",0,0,0,0,0,0,1,0,0,0,0,13,0,0,0,1,0,0,0,0,0,0,0,0,0,0,4,豐原區,24.2486521,120.7138886
3503010163,林修名診所,04-25130166,臺中市豐原區,臺中市豐原區圓環南路193號3樓,"泌尿科,",0,0,0,0,0,0,2,0,0,1,0,4,0,0,0,0,0,0,0,0,0,0,0,0,0,0,0,豐原區,24.24853,120.709257
3836010071,生春中醫診所,04-25266367,臺中市豐原區,臺中市豐原區中興路108號1樓、110號1樓,"中醫一般科,",0,0,0,0,0,0,0,2,0,0,0,0,0,0,0,0,0,0,0,0,0,0,0,0,0,0,0,豐原區,24.2483619,120.715795
3536010708,元懋診所,04 25226132,臺中市豐原區,臺中市豐原區富春街８３號,"西醫一般科,",0,0,0,0,0,0,1,0,0,0,1,1,0,0,0,0,0,0,0,0,0,0,0,0,0,0,0,豐原區,24.2514,120.7175929
136010010,衛生福利部豐原醫院,04-25271180,臺中市豐原區,臺中市豐原區安康路１００號,"家庭醫學科,內科,外科,兒科,婦產科,骨科,神經科,神經外科,泌尿科,眼科,皮膚科,精神科,復健科,麻醉科,放射診斷科,放射腫瘤科,解剖病理科,核子醫學科,急診醫學科,西醫一般科,牙醫一般科,中醫一般科,",4,1,2,0,0,0,97,4,7,30,0,596,16,0,1,33,0,16,14,32,0,3,0,6,1,3,8,豐原區,24.2429234,120.7250934
3503010332,祐和診所,04-25255013,臺中市豐原區,臺中市豐原區圓環東路511號1樓、2樓,"內科,",0,0,0,0,0,0,2,0,0,0,0,12,1,0,0,0,0,0,0,0,0,0,0,0,0,0,0,豐原區,24.2488986,120.7271785
3503010181,玩美女人時尚診所,04-25155566,臺中市豐原區,臺中市豐原區向陽路255號1、2樓,"西醫一般科,",0,0,0,0,0,0,1,0,0,0,0,1,0,0,0,0,0,0,0,0,0,0,0,0,0,0,0,豐原區,24.2516045,120.7277762
3836011863,泰揚中醫診所,04-25287562,臺中市豐原區,臺中市豐原區永康路264號1樓,"中醫一般科,",0,0,0,0,0,0,0,1,0,0,0,0,0,0,0,0,0,0,0,0,0,0,0,0,0,0,0,豐原區,24.2406615,120.7238939
3736010935,張林牙醫診所,425280283,臺中市豐原區,臺中市豐原區三民路二０九號,"牙醫一般科,",0,0,0,0,0,0,0,0,1,0,0,0,0,0,0,0,0,0,0,0,0,0,0,0,0,0,0,豐原區,24.2535432,120.7198675
3736010506,東進牙醫診所,04 5290269,臺中市豐原區,臺中市豐原區南陽路一０三號,"牙醫一般科,",0,0,0,0,0,0,0,0,1,0,0,0,0,0,0,0,0,0,0,0,0,0,0,0,0,0,0,豐原區,24.2445698,120.7283098
1336010015,中國醫藥大學附設醫院豐原分院,04-25222538,臺中市豐原區,臺中市豐原區中正路199號,"家庭醫學科,內科,外科,神經科,泌尿科,復健科,",1,0,0,0,0,0,6,0,0,5,0,28,0,0,0,3,0,1,2,3,0,2,0,1,0,0,0,豐原區,24.2515834,120.718447
3536012542,永福診所,04-25280042,臺中市豐原區,臺中市豐原區中正路七○一號,"耳鼻喉科,",0,0,0,0,0,0,4,0,0,1,0,3,1,0,0,0,0,0,0,0,0,0,0,0,0,0,0,豐原區,24.2506646,120.7113248
3536010904,張威儀診所,04 25293058,臺中市豐原區,臺中市豐原區中興路６３號,"西醫一般科,",0,0,0,0,0,0,1,0,0,0,1,0,0,0,0,0,0,0,0,0,0,0,0,0,0,0,0,豐原區,24.2479901,120.7166167
3536010342,林政光小兒科診所,04 25263342,臺中市豐原區,臺中市豐原區府前街９６號,"家庭醫學科,兒科,",0,0,0,0,0,0,1,0,0,1,0,0,1,0,0,0,0,0,0,0,0,0,0,0,0,0,0,豐原區,24.2496892,120.7180741
3736010515,怡德牙醫診所,04 25289814,臺中市豐原區,臺中市豐原區中山路377號,"牙醫一般科,",0,0,0,0,0,0,0,0,3,0,0,0,0,0,0,0,0,0,0,0,0,0,0,0,0,0,0,豐原區,24.2497758,120.7145054
3836010740,源成中醫診所,04-25225253,臺中市豐原區,臺中市豐原區信義街九十三號,"中醫一般科,",0,0,0,0,0,0,0,1,0,0,0,0,0,0,0,0,0,0,0,0,0,0,0,0,0,0,0,豐原區,24.2457377,120.7127656
3536011223,黃明弘診所,04 25200392,臺中市豐原區,臺中市豐原區安康路６３號,"神經科,",0,0,0,0,0,0,1,0,0,1,0,1,0,0,0,0,0,0,0,0,0,0,0,0,0,0,0,豐原區,24.2437352,120.7249997
3536012499,胡必雄診所,04-25229911,臺中市豐原區,臺中市豐原區中正路425號,"西醫一般科,",0,0,0,0,0,0,2,0,0,0,0,0,1,0,0,0,0,0,0,0,0,0,0,0,0,0,0,豐原區,24.25054,120.7123402
3536010628,豐原吳外婦科診所,04 25263760,臺中市豐原區,臺中市豐原區環東路３９１號,"外科,婦產科,",0,0,0,0,0,0,1,0,0,0,1,0,1,0,0,0,0,0,0,0,0,0,0,0,0,0,0,豐原區,24.2459144,120.7252165
3703010069,晨光牙醫診所,04-25284926,臺中市豐原區,臺中市豐原區中興路101號1樓、103號1樓,"牙醫一般科,",0,0,0,0,0,0,0,0,1,0,0,0,0,0,0,0,0,0,0,0,0,0,0,0,0,0,0,豐原區,24.2481049,120.7156524
3503010207,黃循武骨科專科診所,04-25220739,臺中市豐原區,臺中市豐原區圓環東路656號1、3樓,"骨科,",0,0,0,0,0,0,1,0,0,2,0,2,0,0,0,0,0,0,0,2,0,0,0,0,0,0,0,豐原區,24.2503544,120.7284129
3503010243,楊聰鎰診所,425278561,臺中市豐原區,臺中市豐原區中山路295號1樓,"內科,",0,0,0,0,0,0,1,0,0,0,0,0,1,0,0,0,0,0,0,0,0,0,0,0,0,0,0,豐原區,24.24766,120.714977
3536012631,三仁診所,04 25221850,臺中市豐原區,臺中市豐原區中山路三七九號,"內科,兒科,",0,0,0,0,0,0,2,0,0,1,0,3,0,0,0,0,0,0,0,0,0,0,0,0,0,0,0,豐原區,24.2450846,120.7144022
3736010800,豐原三民牙醫診所,04-25284398,臺中市豐原區,臺中市豐原區南陽路445號,"牙醫一般科,",0,0,0,0,0,0,0,0,1,0,0,0,0,0,0,0,0,0,0,0,0,0,0,0,0,0,0,豐原區,24.2477137,120.7231088
3736010720,豐東牙醫診所,04 25278648,臺中市豐原區,臺中市豐原區豐東路45號,"牙醫一般科,",0,0,0,0,0,0,0,0,1,0,0,0,0,0,0,0,0,0,0,0,0,0,0,0,0,0,0,豐原區,24.245931,120.7285329
3703010032,笛雅牙醫診所,04-25235738,臺中市豐原區,臺中市豐原區圓環東路455號1樓及2樓,"牙醫一般科,",0,0,0,0,0,0,0,0,3,0,0,0,0,0,0,0,0,0,0,0,0,0,0,0,0,0,0,豐原區,24.2473578,120.7261827
3536010842,許獻榮診所,04 25241528,臺中市豐原區,臺中市豐原區南陽路２７１號,"內科,",0,0,0,0,0,0,1,0,0,0,0,1,0,0,0,0,0,0,0,0,0,0,0,0,0,0,0,豐原區,24.2449037,120.7274892
3836010348,全德中醫診所,04-25267652,臺中市豐原區,臺中市豐原區南陽路２87號,"中醫一般科,",0,0,0,0,0,0,0,1,0,0,0,0,0,0,0,0,0,0,0,0,0,0,0,0,0,0,0,豐原區,24.2450606,120.727192
3736010319,親親牙醫診所.,04 25275556,臺中市豐原區,臺中市豐原區圓環南路１９８號,"牙醫一般科,",0,0,0,0,0,0,0,0,1,0,0,0,0,0,0,0,0,0,0,0,0,0,0,0,0,0,0,豐原區,24.24909,120.709613
3503010396,豐原大學眼科診所,04-25223999,臺中市豐原區,臺中市豐原區中正路30號1、2、3樓,"眼科,",0,0,0,0,4,2,3,0,0,1,1,11,0,0,0,0,0,0,0,0,0,0,0,0,0,0,0,豐原區,24.2534838,120.7219611
3536012579,林大丕小兒科診所,04-25282345,臺中市豐原區,臺中市豐原區三民路130號,"兒科,",0,0,0,0,0,0,2,0,0,2,0,3,0,0,0,0,0,0,0,0,0,0,0,0,0,0,0,豐原區,24.253651,120.7195712
3536010100,黃英哲外科泌尿科診所,04 25226242,臺中市豐原區,臺中市豐原區源豐路８５號,"外科,泌尿科,",0,0,0,0,0,0,1,0,0,0,1,0,0,0,0,0,0,0,0,0,0,0,0,0,0,0,0,豐原區,24.2530365,120.7162607
3536011376,中新診所,04 25227308,臺中市豐原區,臺中市豐原區中正路１３６號,"家庭醫學科,",0,0,0,0,0,0,1,0,0,1,0,1,0,0,0,0,0,0,0,0,0,0,0,0,0,0,0,豐原區,24.25196,120.720124
3736010300,清祥牙醫診所,04 25264530,臺中市豐原區,臺中市豐原區成功路４７號,"牙醫一般科,",0,0,0,0,0,0,0,0,1,0,0,0,0,0,0,0,0,0,0,0,0,0,0,0,0,0,0,豐原區,24.2425408,120.7115003
3836010562,超群中醫診所,04-25223597,臺中市豐原區,臺中市豐原區忠孝街１０５巷９號,"中醫一般科,",0,0,0,0,0,0,0,1,0,0,0,0,0,0,0,0,0,0,0,0,0,0,0,0,0,0,0,豐原區,24.253631,120.715571
3836010553,德恩堂中醫診所,04-25242079,臺中市豐原區,臺中市豐原區中正路431號1樓,"中醫一般科,",0,0,0,0,0,0,0,1,0,0,0,1,0,0,0,0,0,0,0,0,0,0,0,0,0,0,0,豐原區,24.2505788,120.7121965
3836010571,慧光中醫診所,04-25273878,臺中市豐原區,臺中市豐原區水源路一九九號,"中醫一般科,",0,0,0,0,0,0,0,1,0,1,0,0,0,0,0,0,0,0,0,0,0,0,0,0,0,0,0,豐原區,24.2557305,120.7366806
3836010580,銧明中醫診所,04-25231741,臺中市豐原區,臺中市豐原區水源路二二三號,"中醫一般科,",0,0,0,0,0,0,0,1,0,0,0,0,0,0,0,0,0,0,0,0,0,0,0,0,0,0,0,豐原區,24.2557305,120.7366806
3836010080,德成中醫診所,04-25225233,臺中市豐原區,臺中市豐原區成功路４６３號,"中醫一般科,",0,0,0,0,0,0,0,1,0,0,0,0,0,0,0,0,0,0,0,0,0,0,0,0,0,0,0,豐原區,24.2516863,120.705749
3836010115,貴仁堂中醫診所,04-25247669,臺中市豐原區,臺中市豐原區豐勢路一段２２４號,"中醫一般科,",0,0,0,0,0,0,0,1,0,0,0,0,0,0,0,0,0,0,0,0,0,0,0,0,0,0,0,豐原區,24.2553833,120.726253
3836010642,永生堂中醫診所,04 25225587,臺中市豐原區,臺中市豐原區三豐路一段170號1樓,"中醫一般科,",0,0,0,0,0,0,0,3,0,1,0,0,0,0,0,0,0,0,0,0,0,0,0,0,0,0,0,豐原區,24.2573611,120.7218351
3836011818,弘一德中醫診所,04-25286178,臺中市豐原區,臺中市豐原區圓環東路五十一號,"中醫一般科,",0,0,0,0,0,0,0,1,0,0,0,0,0,0,0,0,0,0,0,0,0,0,0,0,0,0,0,豐原區,24.2480513,120.7268614
3836011845,同慶中醫診所,04-25231381,臺中市豐原區,臺中市豐原區源豐路一四三號,"中醫一般科,",0,0,0,0,0,0,0,2,0,0,0,0,0,0,0,0,0,0,0,0,0,0,0,0,0,0,0,豐原區,24.2540913,120.7176321
3836011907,永豐中醫診所,04-25287395,臺中市豐原區,臺中市豐原區中山路四○一號,"中醫一般科,",0,0,0,0,0,0,0,1,0,0,0,0,0,0,0,0,0,0,0,0,0,0,0,0,0,0,0,豐原區,24.2450846,120.7144022
3836011916,調昀中醫診所,04-25202333,臺中市豐原區,臺中市豐原區圓環東路666號1樓,"中醫一般科,",0,0,0,0,0,0,0,1,0,0,0,0,0,0,0,0,0,0,0,0,0,0,0,0,0,0,0,豐原區,24.250555,120.728647
3836011943,寶祥中醫診所,04-25120383,臺中市豐原區,臺中市豐原區中正路三九六號,"中醫一般科,",0,0,0,0,0,0,0,1,0,0,0,0,0,0,0,0,0,0,0,0,0,0,0,0,0,0,0,豐原區,24.2506646,120.7113248
3836011970,趙中醫診所,04-25152686,臺中市豐原區,臺中市豐原區成功路七十一號一、二樓,"中醫一般科,",0,0,0,0,0,0,0,1,0,0,0,1,0,0,0,0,0,0,0,0,0,0,0,0,0,0,0,豐原區,24.2521213,120.7234816
3836012011,宗聖中醫診所,04-25254019,臺中市豐原區,臺中市豐原區中正路四二０號,"中醫一般科,",0,0,0,0,0,0,0,1,0,0,0,0,1,0,0,0,0,0,0,0,0,0,0,0,0,0,0,豐原區,24.2506646,120.7113248
3836012057,天寶中醫診所,04-25286455,臺中市豐原區,臺中市豐原區北陽二街119號1樓,"中醫一般科,",0,0,0,0,0,0,0,1,0,0,0,0,0,0,0,0,0,0,0,0,0,0,0,0,0,0,0,豐原區,24.2525103,120.7341957
3536010244,同仁診所,04 25222239,臺中市豐原區,臺中市豐原區博愛街２７號,"內科,兒科,",0,0,0,0,0,0,1,0,0,0,1,0,1,0,0,0,0,0,0,0,0,0,0,0,0,0,0,豐原區,24.250986,120.721132
3536010717,文華婦產科診所,04 25273385,臺中市豐原區,臺中市豐原區中正路170號1樓,"婦產科,",0,0,0,0,0,0,1,0,0,1,0,0,0,0,0,0,0,0,0,0,0,0,0,0,0,0,0,豐原區,24.2519276,120.7191477
1536010046,豐安醫院,04-25231180,臺中市豐原區,臺中市豐原區中正路１１５號,"內科,外科,骨科,",0,0,0,0,0,0,5,0,0,3,0,15,7,0,0,3,0,1,0,3,0,1,0,0,0,0,0,豐原區,24.2516306,120.7205802
3736012028,祐康牙醫診所,04-25156226,臺中市豐原區,臺中市豐原區田心路二段212號,"牙醫一般科,",0,0,0,0,0,0,0,0,1,0,0,0,0,0,0,0,0,0,0,0,0,0,0,0,0,0,0,豐原區,24.2390499,120.721635
3536012695,漢中婦產科診所,04-25245868,臺中市豐原區,臺中市豐原區中正路二一四號,"家庭醫學科,婦產科,",0,0,0,0,0,0,2,0,0,1,0,1,1,0,0,0,0,0,0,0,0,0,0,0,0,0,0,豐原區,24.2506646,120.7113248
3536012748,光妍皮膚科診所,04-25205892,臺中市豐原區,臺中市豐原區中正路377號1樓及379號2樓,"皮膚科,",0,0,0,0,0,0,4,0,0,0,0,6,0,0,0,0,0,0,0,0,0,0,0,0,0,0,0,豐原區,24.2507985,120.7134678
3536010182,劉金源婦產科診所,04 25235943,臺中市豐原區,臺中市豐原區信義街１２９號,"婦產科,",0,0,0,0,0,0,1,0,0,0,0,0,0,0,0,0,0,0,0,0,0,0,0,0,0,0,0,豐原區,24.2521148,120.7187247
3836010482,金生中醫診所,04-25267688,臺中市豐原區,臺中市豐原區博愛街３０４號,"中醫一般科,",0,0,0,0,0,0,0,1,0,0,0,0,0,0,0,0,0,0,0,0,0,0,0,0,0,0,0,豐原區,24.2459352,120.7153919
3536011358,光明眼科診所,04 25234879,臺中市豐原區,臺中市豐原區中正路２０號,"眼科,",0,0,0,0,0,1,3,0,0,2,0,1,1,0,0,0,0,0,0,0,0,0,0,0,0,0,0,豐原區,24.2535861,120.7221461
3836010106,美雅中醫診所,04-25265257,臺中市豐原區,臺中市豐原區中興路今日市場１７號,"中醫一般科,",0,0,0,0,0,0,0,1,0,0,0,0,0,0,0,0,0,0,0,0,0,0,0,0,0,0,0,豐原區,24.245399,120.7105708
3736012064,永豐牙醫診所,25253168,臺中市豐原區,臺中市豐原區中山路中山路626及628號1樓,"牙醫一般科,",0,0,0,0,0,0,0,0,7,0,0,0,0,0,0,0,0,0,0,0,0,0,0,0,0,0,0,豐原區,24.2545008,120.7136386
3736012082,元大牙醫診所,04-25154566,臺中市豐原區,臺中市豐原區豐東路317號1樓,"牙醫一般科,",0,0,0,0,0,0,0,0,5,0,0,0,0,0,0,0,0,0,0,0,0,0,0,0,0,0,0,豐原區,24.2522527,120.7334458
3736012091,亞太牙醫診所,04-25299950,臺中市豐原區,臺中市豐原區圓環東路258-1、260號之1、2樓,"牙醫一般科,",0,0,0,0,0,0,0,0,1,0,0,0,0,0,0,0,0,0,0,0,0,0,0,0,0,0,0,豐原區,24.2432656,120.7214834
3736012108,晴天牙醫診所,04-25158589,臺中市豐原區,臺中市豐原區中正路五四一號,"牙醫一般科,",0,0,0,0,0,0,0,0,2,0,0,0,0,0,0,0,0,0,0,0,0,0,0,0,0,0,0,豐原區,24.2506646,120.7113248
3503020098,仁慈診所,04-25872113,臺中市東勢區,臺中市東勢區豐勢路318號1樓、2樓,"西醫一般科,",0,0,0,0,0,0,1,0,0,2,0,2,0,0,0,0,0,0,0,1,0,0,0,0,0,0,0,東勢區,24.2530973,120.8299791
3736020100,正平牙醫診所,04 25870639,臺中市東勢區,臺中市東勢區豐勢路233號,"牙醫一般科,",0,0,0,0,0,0,0,0,1,0,0,0,0,0,0,0,0,0,0,0,0,0,0,0,0,0,0,東勢區,24.2521628,120.8298535
3536020035,慶恩內皮膚科診所,04 25879589,臺中市東勢區,臺中市東勢區豐勢路４１７號,"內科,皮膚科,",0,0,0,0,0,0,1,0,0,0,0,0,0,0,0,0,0,0,0,0,0,0,0,0,0,0,0,東勢區,24.2563654,120.8285382
3836021181,同德中醫診所,04 25880885,臺中市東勢區,臺中市東勢區豐勢路４５０號,"中醫一般科,",0,0,0,0,0,0,0,3,0,0,0,1,0,0,0,0,0,0,0,0,0,0,0,0,0,0,0,東勢區,24.256119,120.8289267
3536021425,東勢蔡外科診所,04-25886596,臺中市東勢區,臺中市東勢區豐勢路510號,"家庭醫學科,內科,外科,",0,0,0,0,0,0,3,0,0,0,2,12,2,0,0,0,0,0,0,0,0,0,0,0,0,0,0,東勢區,24.258122,120.8280328
3803020049,三明中醫診所,933518502,臺中市東勢區,臺中市東勢區三民街71號1樓,"中醫一般科,",0,0,0,0,0,0,0,1,0,0,0,0,0,0,0,0,0,0,0,0,0,0,0,0,0,0,0,東勢區,24.2599898,120.8272085
3503020169,研華診所,04-25772033,臺中市東勢區,臺中市東勢區豐勢路406號1樓,"西醫一般科,",0,0,0,0,0,0,2,0,0,1,1,2,0,0,0,0,0,0,0,0,0,0,0,0,0,0,0,東勢區,24.2551187,120.8293365
1436020013,東勢區農會附設農民醫院,04-25771919,臺中市東勢區,臺中市東勢區豐勢路２９７號,"家庭醫學科,內科,外科,骨科,神經科,泌尿科,復健科,急診醫學科,",0,0,0,0,0,0,13,0,0,8,0,65,7,0,0,7,0,4,2,6,0,1,0,1,0,0,1,東勢區,24.2534386,120.8291464
3503020034,林錦芳診所,04-25771838,臺中市東勢區,臺中市東勢區豐勢路283號1樓,"家庭醫學科,",0,0,0,0,0,0,1,0,0,1,0,0,0,0,0,0,0,0,0,0,0,0,0,0,0,0,0,東勢區,24.2531928,120.8296448
3836021172,清源中醫診所,04-25881190,臺中市東勢區,臺中市東勢區本街１５７號,"中醫一般科,",0,0,0,0,0,0,0,2,0,0,0,0,0,0,0,0,0,0,0,0,0,0,0,0,0,0,0,東勢區,24.2540513,120.8286927
3836020139,德旺中醫診所,04-25880995,臺中市東勢區,臺中市東勢區東關路六段1063號,"中醫一般科,",0,0,0,0,0,0,0,1,0,1,0,0,0,0,0,0,0,0,0,0,0,0,0,0,0,0,0,東勢區,24.2455849,120.8324112
3736020128,懷恩牙醫診所,04 25888863,臺中市東勢區,臺中市東勢區豐勢路二八一號,"牙醫一般科,",0,0,0,0,0,0,0,0,1,0,0,0,0,0,0,0,0,0,0,0,0,0,0,0,0,0,0,東勢區,24.2545983,120.8294396
3736020137,東農牙醫診所,04 25887446,臺中市東勢區,臺中市東勢區東坑路21號,"牙醫一般科,",0,0,0,0,0,0,0,0,2,0,0,0,0,0,0,0,0,0,0,0,0,0,0,0,0,0,0,東勢區,24.2475879,120.8324572
3736021152,快樂牙醫診所,04-25888257,臺中市東勢區,臺中市東勢區三民街260號,"牙醫一般科,",0,0,0,0,0,0,0,0,1,0,0,0,0,0,0,0,0,0,0,0,0,0,0,0,0,0,0,東勢區,24.1086128,120.6224511
3736021170,晶湛牙醫診所,04*25870258,臺中市東勢區,臺中市東勢區第三橫街121及123號,"牙醫一般科,",0,0,0,0,0,0,0,0,4,0,0,0,0,0,0,0,0,0,0,0,0,0,0,0,0,0,0,東勢區,24.2560176,120.8297056
3736020084,宗聖牙醫診所,04 25888339,臺中市東勢區,臺中市東勢區豐勢路412號,"牙醫一般科,",0,0,0,0,0,0,0,0,1,0,0,0,0,0,0,0,0,0,0,0,0,0,0,0,0,0,0,東勢區,24.2552182,120.8293098
3536020071,劉內小兒科診所,04 25877016,臺中市東勢區,臺中市東勢區豊勢路５０６號,"內科,兒科,",0,0,0,0,0,0,1,0,0,0,0,0,0,0,0,0,0,0,0,0,0,0,0,0,0,0,0,東勢區,24.2580526,120.8280817
3536020204,雅之診所,04 25886877,臺中市東勢區,臺中市東勢區豊勢路４６９號,"家庭醫學科,外科,",0,0,0,0,0,0,1,0,0,0,0,0,0,0,0,0,0,0,0,0,0,0,0,0,0,0,0,東勢區,24.2575787,120.828073
3536020295,梁外科診所,425872053,臺中市東勢區,臺中市東勢區豐勢路６１１＿１號,"外科,",0,0,0,0,0,0,1,0,0,1,2,1,0,0,0,0,0,0,0,0,0,0,0,0,0,0,0,東勢區,24.2606205,120.8254787
3536020348,建民聯合診所,04 25873995,臺中市東勢區,臺中市東勢區豐勢路２６２號,"內科,",0,0,0,0,0,0,1,0,0,1,0,1,0,0,0,0,0,0,0,0,0,0,0,0,0,0,0,東勢區,24.2518899,120.8302304
3536020366,張德旺耳鼻喉科診所,04-25872206,臺中市東勢區,臺中市東勢區豐勢路553、559、561號1樓,"兒科,骨科,神經科,耳鼻喉科,",0,0,0,0,0,0,5,0,0,1,0,1,2,0,0,0,0,0,0,0,0,0,0,0,0,0,0,東勢區,24.2545983,120.8294396
3536020375,一民診所,04-25875170,臺中市東勢區,臺中市東勢區三民街48號1樓,"家庭醫學科,",0,0,0,0,0,0,1,0,0,0,1,1,0,0,0,0,0,0,0,0,0,0,0,0,0,0,0,東勢區,24.2599898,120.8272085
3536021381,東勢張診所,04-25876662,臺中市東勢區,臺中市東勢區豐勢路五四二號,"西醫一般科,",0,0,0,0,0,0,1,0,0,0,0,1,0,0,0,0,0,0,0,0,0,0,0,0,0,0,0,東勢區,24.2545983,120.8294396
3536021434,建康耳鼻喉科診所,04-2587-9780 或 0930-208-661,臺中市東勢區,臺中市東勢區中寧里豐勢路504號1樓,"家庭醫學科,耳鼻喉科,",0,0,0,0,0,0,2,0,0,2,0,1,0,0,0,0,0,0,0,0,0,0,0,0,0,0,0,東勢區,24.2579884,120.8280779
3536021452,長頸鹿小兒科診所,04-25771809,臺中市東勢區,臺中市東勢區豐勢路四一八號1、2、3樓及四二O號1、2樓,"兒科,神經科,",0,0,0,0,0,0,6,0,0,0,0,9,1,0,0,0,0,1,0,0,0,1,0,0,0,0,1,東勢區,24.2545983,120.8294396
3536020222,林眼科診所,04 25884055,臺中市東勢區,臺中市東勢區豐勢路３２６號1樓,"眼科,",0,0,0,0,0,0,1,0,0,1,0,0,0,0,0,0,0,0,0,0,0,0,0,0,0,0,0,東勢區,24.2532549,120.8298151
2336020012,臺中市東勢區衛生所,04-25873872,臺中市東勢區,臺中市東勢區豊勢路490號,"內科,",0,0,0,0,0,0,1,0,0,0,0,8,0,0,0,1,0,0,0,0,0,0,0,0,0,0,1,東勢區,24.2575725,120.8283813
3703020029,陳成欽牙醫診所,04-25885147,臺中市東勢區,臺中市東勢區新盛九街11號1樓,"牙醫一般科,",0,0,0,0,0,0,0,0,1,0,0,0,0,0,0,0,0,0,0,0,0,0,0,0,0,0,0,東勢區,24.2415964,120.8332272
3503020043,東勢潘耳鼻喉科診所,04-2588-0587 或 0955-586-895,臺中市東勢區,臺中市東勢區中寧里豐勢路496號1樓,"耳鼻喉科,",0,0,0,0,0,0,1,0,0,0,1,0,1,0,0,0,0,0,0,0,0,0,0,0,0,0,0,東勢區,24.2578586,120.8281501
3503020025,山城診所,04-25885155,臺中市東勢區,臺中市東勢區中山路88號1樓,"西醫一般科,",0,0,0,0,0,0,1,0,0,0,1,1,0,0,0,0,0,0,0,0,0,0,0,0,0,0,0,東勢區,24.1392579,120.6818219
3836020013,聖和中醫診所,04-25883457,臺中市東勢區,臺中市東勢區第二橫街４０號,"中醫一般科,",0,0,0,0,0,0,0,1,0,0,0,0,0,0,0,0,0,0,0,0,0,0,0,0,0,0,0,東勢區,24.2546589,120.8291643
3503020141,陳瑞明診所,04-25888355,臺中市東勢區,臺中市東勢區豐勢路548號1樓、2樓,"內科,",0,0,0,0,0,0,1,0,0,0,0,4,0,0,0,0,0,0,0,0,0,0,0,0,0,0,2,東勢區,24.2595076,120.8274665
3503020105,農安診所,0937-231098,臺中市東勢區,臺中市東勢區豐勢路297號5樓,"內科,",0,0,0,0,0,0,2,0,0,0,0,5,3,0,0,0,0,0,0,0,0,0,0,0,0,0,0,東勢區,24.253439,120.829146
3503020089,元和診所,425872113,臺中市東勢區,臺中市東勢區豐勢路318號1樓,"西醫一般科,",0,0,0,0,0,0,1,0,0,0,0,1,0,0,0,0,0,0,0,0,0,0,0,0,0,0,0,東勢區,24.2530973,120.8299791
3703020010,合麗牙醫診所,04-25880685,臺中市東勢區,臺中市東勢區豐勢路455號1樓、2樓,"牙醫一般科,",0,0,0,0,0,0,0,0,1,0,0,0,0,0,0,0,0,0,0,0,0,0,0,0,0,0,0,東勢區,24.2572792,120.8281599
3503020070,東豐診所,04-25770032,臺中市東勢區,臺中市東勢區豐勢路318號3樓,"西醫一般科,",0,0,0,0,0,0,1,0,0,0,0,7,0,0,0,0,0,0,0,0,0,0,0,0,0,0,0,東勢區,24.2530973,120.8299791
3736020075,新陳牙醫診所,04 25876200,臺中市東勢區,臺中市東勢區本街一八七號,"牙醫一般科,",0,1,0,0,0,0,0,0,1,0,0,0,0,0,0,0,0,0,0,0,0,0,0,0,0,0,0,東勢區,24.2548035,120.8286577
3536020286,東勢朱永泰診所,04 25871700,臺中市東勢區,臺中市東勢區豐勢路１７２號,"西醫一般科,",0,0,0,0,0,0,1,0,0,1,0,1,0,0,0,0,0,0,0,0,0,0,0,0,0,0,0,東勢區,24.2500204,120.8307663
3803020085,正東勢仁心堂中醫診所,04-22573300,臺中市東勢區,臺中市東勢區豐勢路237號1樓,"中醫一般科,",0,0,0,0,0,0,0,2,0,0,0,0,0,0,0,0,0,0,0,0,0,0,0,0,0,0,0,東勢區,24.2522666,120.8298092
3503020196,維仁診所,25887799,臺中市東勢區,臺中市東勢區中新街1號1樓,"西醫一般科,",0,0,0,0,0,0,1,0,0,0,0,0,0,0,0,0,0,0,0,0,0,0,0,0,0,0,0,東勢區,24.2516917,120.8312367
3803020094,仁祐堂中醫診所,04-25773311,臺中市東勢區,臺中市東勢區豐勢路487號1樓,"中醫一般科,",0,0,0,0,0,0,0,3,0,0,0,0,0,0,0,0,0,0,0,0,0,0,0,0,0,0,0,東勢區,24.2579779,120.8278787
3503020187,仁合婦產科診所,04-25887589,臺中市東勢區,臺中市東勢區中山路56號1樓,"婦產科,",0,0,0,0,0,0,2,0,0,0,1,3,1,0,0,0,0,0,0,0,0,0,0,0,0,0,0,東勢區,24.13864,120.6825036
3536021489,湯瑪仕小兒科診所,(04)25772366,臺中市東勢區,臺中市東勢區豐勢路445號1樓,"外科,兒科,",0,0,0,0,0,0,2,0,0,1,1,0,0,0,0,0,0,0,0,0,0,0,0,0,0,0,0,東勢區,24.2568744,120.8283883
3503020203,東勢大學眼科診所,04-28774471,臺中市東勢區,臺中市東勢區豐勢路354號1、2樓、356號2樓,"眼科,",0,0,0,0,0,2,3,0,0,1,2,4,0,0,0,0,0,0,0,0,0,0,0,0,0,0,0,東勢區,24.254013,120.8297055
3703020038,東勢華崴牙醫診所,04-25885858,臺中市東勢區,臺中市東勢區豐勢路105號2、3樓,"牙醫一般科,",0,1,0,0,0,0,0,0,8,0,0,1,0,0,0,0,0,0,0,0,0,0,0,0,0,0,0,東勢區,24.2493412,120.8308
3736020066,耀鐘牙醫診所,04 25872347,臺中市東勢區,臺中市東勢區本街３０７號,"牙醫一般科,",0,0,0,0,0,0,0,0,1,0,0,0,0,0,0,0,0,0,0,0,0,0,0,0,0,0,0,東勢區,24.2571324,120.8275724
3736020093,慶昌牙醫診所,04 5886353,臺中市東勢區,臺中市東勢區中山路８６號,"牙醫一般科,",0,0,0,0,0,0,0,0,2,0,0,0,0,0,0,0,0,0,0,0,0,0,0,0,0,0,0,東勢區,24.1392592,120.6818233
3536020339,維恩耳鼻喉科診所,04 25885413,臺中市東勢區,臺中市東勢區豐勢路372號1樓,"耳鼻喉科,",0,0,0,0,0,0,3,0,0,0,0,1,0,0,0,0,0,0,0,0,0,0,0,0,0,0,0,東勢區,24.254369,120.8296096
3503020150,東勢醫達人診所,04-25888585,臺中市東勢區,臺中市東勢區東坑路285號1樓、2樓,"家庭醫學科,",0,0,0,0,0,0,1,0,0,0,0,3,0,0,0,0,0,0,0,0,0,0,0,0,0,0,0,東勢區,24.2448625,120.8380404
3836020148,張仲田中醫診所,04-25773509,臺中市東勢區,臺中市東勢區豐勢路478號1樓,"中醫一般科,",0,0,0,0,0,0,0,2,0,0,0,1,0,0,0,0,0,0,0,0,0,0,0,0,0,0,0,東勢區,24.256901,120.828639
3736020057,陽明牙醫診所,04 25882040,臺中市東勢區,臺中市東勢區豐勢路448號,"牙醫一般科,",0,0,0,0,0,0,0,0,1,0,0,0,0,0,0,0,0,0,0,0,0,0,0,0,0,0,0,東勢區,24.2560334,120.8289269
3703030052,雅臻牙醫診所,04-26869888,臺中市大甲區,臺中市大甲區三民路146號1、2樓,"牙醫一般科,",0,0,0,0,0,0,0,0,3,0,0,0,0,0,0,0,0,0,0,0,0,0,0,0,0,0,0,大甲區,24.3487942,120.6221603
3836031365,太陽中醫診所,04-26869289,臺中市大甲區,臺中市大甲區新政路256號1、2、3樓,"中醫一般科,",0,0,0,0,0,0,0,5,0,0,0,3,0,0,0,0,0,0,0,0,0,0,0,0,0,0,0,大甲區,24.3512788,120.6188889
1503030065,美德醫院,04-23693568,臺中市大甲區,臺中市大甲區長安路20號,"家庭醫學科,精神科,",0,0,0,0,0,0,3,0,0,2,0,21,2,0,0,0,0,0,3,0,0,0,0,0,0,1,0,大甲區,24.3874125,120.663746
3503030183,安齡診所,04-26802981,臺中市大甲區,臺中市大甲區蔣公路206號1樓、2樓及地下1樓(部分),"神經科,",0,0,0,0,0,0,1,0,0,0,0,2,1,0,0,0,0,2,0,0,0,1,0,0,0,0,0,大甲區,24.3468382,120.6206469
3803030054,杏扶堂中醫診所,04-26885858,臺中市大甲區,臺中市大甲區新政路5號1樓,"中醫一般科,",0,0,0,0,0,0,0,1,0,0,0,1,0,0,0,0,0,0,0,0,0,0,0,0,0,0,0,大甲區,24.3476882,120.626922
3703030070,愷全牙醫診所,04-26802298,臺中市大甲區,臺中市大甲區德興路203號1樓,"牙醫一般科,",0,0,0,0,0,0,0,0,1,0,0,0,0,0,0,0,0,0,0,0,0,0,0,0,0,0,0,大甲區,24.3518992,120.6196699
3503030147,全信賴診所,04-26762248,臺中市大甲區,臺中市大甲區甲后路5段267號1樓、2樓,"兒科,",0,0,0,0,0,0,2,0,0,0,0,6,0,0,0,0,0,0,0,0,0,0,0,0,0,0,1,大甲區,24.3446427,120.6338739
3503030012,青年診所,04-26810837,臺中市大甲區,臺中市大甲區日南里青年路8之1號1樓,"西醫一般科,",0,0,0,0,0,0,1,0,0,0,1,0,0,0,0,0,0,0,0,0,0,0,0,0,0,0,0,大甲區,24.4058758,120.6430741
3536030451,琉璃光診所,04 -26873051,臺中市大甲區,臺中市大甲區順天路342號,"家庭醫學科,",0,0,0,0,0,0,1,0,0,0,0,2,0,0,0,0,0,0,0,0,0,0,0,0,0,0,0,大甲區,24.3502778,120.627158
3703030034,新勝全牙醫診所,04-26803888,臺中市大甲區,臺中市大甲區德興路201號1樓及2樓,"牙醫一般科,",0,0,0,0,0,0,0,0,3,0,0,0,0,0,0,0,0,0,0,0,0,0,0,0,0,0,0,大甲區,24.3517704,120.6198057
3536030317,鄭成發診所,04 26882366,臺中市大甲區,臺中市大甲區光明路６８號,"耳鼻喉科,",0,0,0,0,0,0,1,0,0,0,0,0,0,0,0,0,0,0,0,0,0,0,0,0,0,0,0,大甲區,24.3441086,120.6240335
3503030129,佑安診所,426760248,臺中市大甲區,臺中市大甲區大安港路351號1樓,"西醫一般科,",0,0,0,0,0,0,2,0,0,0,2,1,1,0,0,0,0,0,0,0,0,0,0,0,0,0,0,大甲區,24.3555951,120.6089559
3536031878,璩大維診所,04-26863600,臺中市大甲區,臺中市大甲區中山路一段1035號1樓,"內科,",0,0,0,0,0,0,1,0,0,1,2,2,0,0,0,0,0,0,0,0,0,0,0,0,0,0,1,大甲區,24.3486723,120.6274276
3803030045,震東中醫診所,04-26889408,臺中市大甲區,臺中市大甲區五福街135號1樓、2樓,"中醫一般科,",0,0,0,0,0,0,0,1,0,0,0,0,0,0,0,0,0,0,0,0,0,0,0,0,0,0,0,大甲區,24.3492578,120.6207936
3536030424,啟明眼科聯合診所,04 26879311,臺中市大甲區,臺中市大甲區光明路71及73號,"眼科,",0,0,0,0,0,0,1,0,0,0,2,0,1,0,0,0,0,0,0,0,0,0,0,0,0,0,0,大甲區,24.3440491,120.6230525
3536031798,見安診所,(04)26889595,臺中市大甲區,臺中市大甲區順天路391號,"家庭醫學科,",0,0,0,0,0,0,1,0,0,1,0,1,1,0,0,0,0,0,0,0,0,0,0,0,0,0,0,大甲區,24.350237,120.626778
3503030156,仁馨診所,04-26863000,臺中市大甲區,臺中市大甲區經國路789號2樓之1,"內科,",0,0,0,0,0,0,2,0,0,1,0,13,1,0,0,0,0,0,0,0,0,0,0,0,0,0,0,大甲區,24.3560266,120.6195615
3536031752,小熊的森林診所,(04)26805060,臺中市大甲區,臺中市大甲區三民路一三二號一樓二樓,"西醫一般科,",0,0,0,0,0,0,2,0,0,0,0,4,0,0,0,0,0,0,0,0,0,0,0,0,0,0,0,大甲區,24.3489624,120.6220104
3736030106,春生牙醫診所,04 26876129,臺中市大甲區,臺中市大甲區民生路22號,"牙醫一般科,",0,0,0,0,0,0,0,0,1,0,0,0,0,0,0,0,0,0,0,0,0,0,0,0,0,0,0,大甲區,24.3469308,120.627398
3536030022,順天診所,04 26868250,臺中市大甲區,臺中市大甲區順天路２０９號,"家庭醫學科,",0,0,0,0,0,0,1,0,0,0,1,0,0,0,0,0,0,0,0,0,0,0,0,0,0,0,0,大甲區,24.346089,120.6235549
3536031761,宏光診所,04 26882002,臺中市大甲區,臺中市大甲區鎮政路3號1樓,"西醫一般科,",0,0,0,0,0,0,3,0,0,2,0,3,0,0,0,0,0,0,0,0,0,0,0,0,0,0,0,大甲區,24.3439788,120.6251263
3536031832,力倫診所,04-26805889,臺中市大甲區,臺中市大甲區蔣公路246號1樓,"家庭醫學科,兒科,",0,0,0,0,0,0,4,0,0,0,0,4,0,0,0,0,0,0,0,0,0,0,0,0,0,0,0,大甲區,24.3473286,120.6194333
3703030025,精品牙醫診所,04-26866662,臺中市大甲區,臺中市大甲區中華街85號1樓,"牙醫一般科,",0,2,0,0,0,0,0,0,7,0,0,0,0,0,0,0,0,0,0,0,0,0,0,0,0,0,0,大甲區,24.345253,120.6210476
3736030035,三民牙醫診所,04 26860824,臺中市大甲區,臺中市大甲區三民路３９號,"牙醫一般科,",0,0,0,0,0,0,0,0,1,0,0,0,0,0,0,0,0,0,0,0,0,0,0,0,0,0,0,大甲區,24.3460507,120.6207147
3536030415,李光輝皮膚科診所,04-26880903,臺中市大甲區,臺中市大甲區順天路383號1樓,"皮膚科,",0,0,0,0,0,0,3,0,0,0,0,1,0,0,0,0,0,0,0,0,0,0,0,0,0,0,0,大甲區,24.3501768,120.6267469
3836030055,德泰中醫診所,04-26814048,臺中市大甲區,臺中市大甲區臨江路１２號,"中醫一般科,",0,0,0,0,0,0,0,1,0,0,0,0,0,0,0,0,0,0,0,0,0,0,0,0,0,0,0,大甲區,24.379718,120.6538634
3703030016,大甲媽牙醫診所,04-26763000,臺中市大甲區,臺中市大甲區中華街95號2樓,"牙醫一般科,",0,0,0,0,0,0,0,0,1,0,0,0,0,0,0,0,0,0,0,0,0,0,0,0,0,0,0,大甲區,24.345486,120.6207009
3536031725,仁禾診所,04-26888106,臺中市大甲區,臺中市大甲區中山路一段八六一號一、二樓及八五九號一、二樓,"內科,",0,0,0,0,0,0,3,0,0,2,0,11,0,0,0,0,0,0,0,0,0,0,0,0,0,0,0,大甲區,24.3788233,120.6487508
3736030179,鴻光牙醫診所,04 26873525,臺中市大甲區,臺中市大甲區蔣公路３４號,"牙醫一般科,",0,0,0,0,0,0,0,0,1,0,0,0,0,0,0,0,0,0,0,0,0,0,0,0,0,0,0,大甲區,24.3449579,120.6256065
3736031238,佳鴻牙醫診所,04 26803338,臺中市大甲區,臺中市大甲區光明路206之2號1樓,"牙醫一般科,",0,0,0,0,0,0,0,0,4,0,0,0,0,0,0,0,0,0,0,0,0,0,0,0,0,0,0,大甲區,24.3454429,120.6197811
3703030061,正天牙醫診所,04-26800169,臺中市大甲區,臺中市大甲區雁門路21號1、2樓,"牙醫一般科,",0,0,0,0,0,0,0,0,4,0,0,0,0,0,0,0,0,0,0,0,0,0,0,0,0,0,0,大甲區,24.3466199,120.6225235
3736031274,寶貝牙牙醫診所,04-26817123,臺中市大甲區,臺中市大甲區通天路206號,"牙醫一般科,",0,0,0,0,0,0,0,0,1,0,0,0,0,0,0,0,0,0,0,0,0,0,0,0,0,0,0,大甲區,24.381547,120.6539263
3536030353,張漢昌婦產科診所,04 26817420,臺中市大甲區,臺中市大甲區經國路１９７８巷３號,"兒科,婦產科,",0,0,0,0,0,0,1,0,0,0,0,0,1,0,0,0,0,0,0,0,0,0,0,0,0,0,0,大甲區,24.3820712,120.65184
3536031663,新大同診所,04 26872116,臺中市大甲區,臺中市大甲區中山路一段1089號2樓,"外科,",0,0,0,0,0,0,1,0,0,0,1,0,2,0,0,1,0,0,0,0,0,0,0,0,0,0,0,大甲區,24.3517467,120.6275008
3736030160,榮春牙醫診所,04 26810955,臺中市大甲區,臺中市大甲區通天路２７４號,"牙醫一般科,",0,0,0,0,0,0,0,0,1,0,0,0,0,0,0,0,0,0,0,0,0,0,0,0,0,0,0,大甲區,24.3823209,120.6525085
3836031347,同慶堂中醫診所,04-26883008,臺中市大甲區,臺中市大甲區文武路135號,"中醫一般科,",0,0,0,0,0,0,0,2,0,0,0,0,0,0,0,0,0,0,0,0,0,0,0,0,0,0,0,大甲區,24.3477223,120.6213912
3836030019,晉安中醫診所,04-26869365,臺中市大甲區,臺中市大甲區水源路９０號,"中醫一般科,",0,0,0,0,0,0,0,1,0,0,0,0,0,0,0,0,0,0,0,0,0,0,0,0,0,0,0,大甲區,24.3409362,120.6236088
3836030028,明德中醫診所,04 26878606,臺中市大甲區,臺中市大甲區鎮瀾街１６１號,"中醫一般科,",0,0,0,0,0,0,0,1,0,0,0,0,0,0,0,0,0,0,0,0,0,0,0,0,0,0,0,大甲區,24.3457028,120.6238809
3836030037,大仁中醫診所,04-26873313,臺中市大甲區,臺中市大甲區順天路７２號,"中醫一般科,",0,0,0,0,0,0,0,1,0,0,0,0,0,0,0,0,0,0,0,0,0,0,0,0,0,0,0,大甲區,24.3433285,120.621548
3836030064,恒源中醫診所,04-26873390,臺中市大甲區,臺中市大甲區光明路２０６號,"中醫一般科,",0,0,0,0,0,0,0,1,0,0,0,0,0,0,0,0,0,0,0,0,0,0,0,0,0,0,0,大甲區,24.3453696,120.6197388
3836030091,瑩安中醫診所,04-26875299,臺中市大甲區,臺中市大甲區鎮政路４０－３號,"中醫一般科,",0,0,0,0,0,0,0,3,0,0,0,0,0,0,0,0,0,0,0,0,0,0,0,0,0,0,0,大甲區,24.3460937,120.6257055
3836030171,健安堂中醫診所,04-26870166,臺中市大甲區,臺中市大甲區順天路２６６號,"中醫一般科,",0,0,0,0,0,0,0,1,0,0,0,0,0,0,0,0,0,0,0,0,0,0,0,0,0,0,0,大甲區,24.3478855,120.6253153
3836031301,泰乙堂中醫診所,04-26868557,臺中市大甲區,臺中市大甲區水源路十七號,"中醫一般科,",0,0,0,0,0,0,0,1,0,0,0,0,0,0,0,0,0,0,0,0,0,0,0,0,0,0,0,大甲區,24.3444464,120.6291761
3836031374,永吉中醫診所,04-26866262,臺中市大甲區,臺中市大甲區中華街８６號,"中醫一般科,",0,0,0,0,0,0,0,1,0,0,0,0,0,0,0,0,0,0,0,0,0,0,0,0,0,0,0,大甲區,24.3456221,120.6211976
3836031383,仁恩堂中醫診所,04-26801000,臺中市大甲區,臺中市大甲區蔣公路四十六號,"中醫一般科,",0,0,0,0,0,0,0,4,0,0,0,1,0,0,0,0,0,0,0,0,0,0,0,0,0,0,0,大甲區,24.3464127,120.6217472
3536031707,喜月婦產科診所,04-26881746,臺中市大甲區,臺中市大甲區水源路一一號一?四樓,"婦產科,",0,0,0,0,0,0,1,0,0,0,0,1,0,0,0,0,0,0,0,0,0,0,0,0,0,0,0,大甲區,24.3788233,120.6487508
3736030044,建德牙醫診所,04 26872630,臺中市大甲區,臺中市大甲區蔣公路７９號,"牙醫一般科,",0,0,0,0,0,0,0,0,1,0,0,0,0,0,0,0,0,0,0,0,0,0,0,0,0,0,0,大甲區,24.345124,120.6240035
3736030053,正大牙醫診所,04 26863062,臺中市大甲區,臺中市大甲區蔣公路１號,"牙醫一般科,",0,0,0,0,0,0,0,0,1,0,0,0,0,0,0,0,0,0,0,0,0,0,0,0,0,0,0,大甲區,24.3445192,120.6261012
3736030071,瑞文牙醫診所,04 26873067,臺中市大甲區,臺中市大甲區中山路一段９４５號,"牙醫一般科,",0,0,0,0,0,0,0,0,1,0,0,0,0,0,0,0,0,0,0,0,0,0,0,0,0,0,0,大甲區,24.3442582,120.6262085
3736030099,平安牙醫診所,04 26876635,臺中市大甲區,臺中市大甲區光明路６９號,"牙醫一般科,",0,0,0,0,0,0,0,0,3,0,0,0,0,0,0,0,0,0,0,0,0,0,0,0,0,0,0,大甲區,24.3438126,120.6230904
3736030133,中文牙科診所,04 26876357,臺中市大甲區,臺中市大甲區五福街二０號,"牙醫一般科,",0,0,0,0,0,0,0,0,1,0,0,0,0,0,0,0,0,0,0,0,0,0,0,0,0,0,0,大甲區,24.3493642,120.6209664
3736031265,鼎盛牙醫診所,04-26802686,臺中市大甲區,臺中市大甲區文武路42號1樓及2樓,"牙醫一般科,",0,0,0,0,0,0,0,0,3,0,0,0,0,0,0,0,0,0,0,0,0,0,0,0,0,0,0,大甲區,24.346193,120.6250752
3736030213,普全牙醫診所,04-26870916,臺中市大甲區,臺中市大甲區德興路173號,"牙醫一般科,",0,0,0,0,0,0,0,0,2,0,0,0,0,0,0,0,0,0,0,0,0,0,0,0,0,0,0,大甲區,24.3512034,120.6215854
3736031256,卓越牙醫診所,04-26885563,臺中市大甲區,臺中市大甲區新政路一七號一樓,"牙醫一般科,",0,0,0,0,0,0,0,0,1,0,0,0,0,0,0,0,0,0,0,0,0,0,0,0,0,0,0,大甲區,24.350555,120.6206577
3536031789,佑吉診所,(04)26872012,臺中市大甲區,臺中市大甲區文武路65號,"內科,",0,0,0,0,0,0,1,0,0,0,0,1,0,0,0,0,0,0,0,0,0,0,0,0,0,0,0,大甲區,24.3469394,120.6235304
3536030120,錫欽診所,04 26815785,臺中市大甲區,臺中市大甲區通天路１７８號,"家庭醫學科,",0,0,0,0,0,0,3,0,0,0,0,2,1,0,0,1,0,0,0,0,0,0,0,0,0,0,0,大甲區,24.3812089,120.65464
3536030157,同愛小兒科內科診所,(04)26861212,臺中市大甲區,臺中市大甲區鎮政路４８號,"內科,兒科,",0,0,0,0,0,0,1,0,0,0,0,0,0,0,0,0,0,0,0,0,0,0,0,0,0,0,0,大甲區,24.3463683,120.6257318
3536030184,張炳雄診所,04 26874608,臺中市大甲區,臺中市大甲區順天路２２６號,"家庭醫學科,",0,0,0,0,0,0,1,0,0,0,0,0,0,0,0,0,0,0,0,0,0,0,0,0,0,0,0,大甲區,24.3470274,120.6246801
3536030433,李婦產科診所,04 26883771,臺中市大甲區,臺中市大甲區民生路２２－２號,"家庭醫學科,婦產科,",0,0,0,0,0,0,1,0,0,0,0,0,1,0,0,0,0,0,0,0,0,0,0,0,0,0,0,大甲區,24.3469888,120.6264193
3536030442,信東耳鼻喉科診所,04 26886216,臺中市大甲區,臺中市大甲區蔣公路２６１號,"耳鼻喉科,",0,0,0,0,0,0,1,0,0,0,0,0,0,0,0,0,0,0,0,0,0,0,0,0,0,0,0,大甲區,24.3472686,120.618759
3536030488,蔡精龍診所,04 26875759,臺中市大甲區,臺中市大甲區新政路２５４號,"內科,",0,0,0,0,0,0,1,0,0,0,0,6,2,0,0,0,0,0,0,0,0,0,0,0,0,0,0,大甲區,24.3511833,120.6192816
3536030513,昇和聯合診所,04 26874615,臺中市大甲區,臺中市大甲區文武路１９７之８號,"家庭醫學科,外科,",0,0,0,0,0,0,2,0,0,0,0,1,0,0,0,0,0,0,0,0,0,0,0,0,0,0,0,大甲區,24.3485501,120.6186776
3536031672,吳大維皮膚科診所,04-26800599,臺中市大甲區,臺中市大甲區光明路八三號,"皮膚科,",0,0,0,0,0,0,1,0,0,0,1,0,0,0,0,0,0,0,0,0,0,0,0,0,0,0,0,大甲區,24.3445034,120.6208516
3536031734,小朋友小兒科診所,04 26802025,臺中市大甲區,臺中市大甲區蔣公路二五五號,"兒科,",0,0,0,0,0,0,3,0,0,1,1,0,1,0,0,0,0,0,0,0,0,0,0,0,0,0,0,大甲區,24.3464127,120.6217472
3536031770,元吉診所,(04)26872012,臺中市大甲區,臺中市大甲區文武路65號,"家庭醫學科,兒科,",0,0,0,0,0,0,2,0,0,0,0,1,0,0,0,0,0,0,0,0,0,0,0,0,0,0,0,大甲區,24.3469394,120.6235304
3536030111,大甲志仁外科診所,04 26879387,臺中市大甲區,臺中市大甲區蔣公路２３３號,"外科,",0,0,0,0,0,0,1,0,0,1,0,0,0,0,0,0,0,0,0,0,0,0,0,0,0,0,0,大甲區,24.347031,120.619346
3736030151,維美牙醫診所,04 26884767,臺中市大甲區,臺中市大甲區順天路三二四號,"牙醫一般科,",0,0,0,0,0,0,0,0,2,0,0,1,0,0,0,0,0,0,0,0,0,0,0,0,0,0,0,大甲區,24.345727,120.6233862
3736030197,三大牙醫診所,04 26861010,臺中市大甲區,臺中市大甲區中山路一段一一四九號,"牙醫一般科,",0,0,0,0,0,0,0,0,1,0,0,0,0,0,0,0,0,0,0,0,0,0,0,0,0,0,0,大甲區,24.3468239,120.6277486
3536030371,周眼科診所,04 26863289,臺中市大甲區,臺中市大甲區鎮政路５８號,"眼科,",0,0,0,0,0,0,2,0,0,0,1,0,0,0,0,0,0,0,0,0,0,0,0,0,0,0,0,大甲區,24.347315,120.626158
3536031850,李家榮耳鼻喉科診所,04-26863368,臺中市大甲區,臺中市大甲區蔣公路212-1號1樓,"耳鼻喉科,",0,0,0,0,0,0,1,0,0,0,1,0,0,0,0,0,0,0,0,0,0,0,0,0,0,0,0,大甲區,24.3468986,120.6204698
936030018,李綜合醫療社團法人大甲李綜合醫院,04-26862288,臺中市大甲區,臺中市大甲區八德街2號,"家庭醫學科,內科,外科,兒科,婦產科,骨科,神經科,神經外科,泌尿科,耳鼻喉科,精神科,復健科,麻醉科,放射診斷科,解剖病理科,急診醫學科,",0,0,0,0,0,0,46,0,0,12,0,150,31,0,0,27,0,4,3,12,0,1,0,2,0,1,3,大甲區,24.3507685,120.6182816
2336030018,臺中市大甲區衛生所,04-26872153,臺中市大甲區,臺中市大甲區德興路81號,"西醫一般科,",0,0,0,0,0,0,1,0,0,0,0,11,0,0,0,1,0,0,0,0,0,0,0,0,0,0,0,大甲區,24.3504384,120.6245035
3803030027,和順堂中醫診所,04-267636799,臺中市大甲區,臺中市大甲區順天里三民路111號1樓,"中醫一般科,",0,0,0,0,0,0,0,1,0,0,0,0,0,0,0,0,0,0,0,0,0,0,0,0,0,0,0,大甲區,24.3480117,120.6215795
3503030030,良安診所,04-2681-9816,臺中市大甲區,臺中市大甲區日南里幼四路43號,"西醫一般科,",0,0,0,0,0,0,2,0,0,1,1,4,0,0,0,0,0,0,0,0,0,0,0,0,0,0,0,大甲區,24.4049775,120.6493205
3536030577,上安診所,04 26821377,臺中市大甲區,臺中市大甲區臨江路四十之一號,"內科,",0,0,0,0,0,0,1,0,0,0,1,0,2,0,0,0,0,0,0,0,0,0,0,0,0,0,0,大甲區,24.398253,120.631631
3536031681,大甲王婦產科家庭醫學科診所,935373194,臺中市大甲區,臺中市大甲區水源路三三八號一、二樓,"家庭醫學科,婦產科,",0,0,0,0,0,0,1,0,0,0,0,0,0,0,0,0,0,0,0,0,0,0,0,0,0,0,0,大甲區,24.3444464,120.6291761
3836030108,慶安中醫診所,04 26875469,臺中市大甲區,臺中市大甲區鎮政路１６號,"中醫一般科,",0,0,0,0,0,0,0,1,0,0,0,0,0,0,0,0,0,0,0,0,0,0,0,0,0,0,0,大甲區,24.3445897,120.6249896
3836031392,一品堂大甲中醫診所,04-26885757,臺中市大甲區,臺中市大甲區光明路１４０號１樓,"中醫一般科,",0,0,0,0,0,0,0,6,0,0,0,0,0,0,0,0,0,0,0,0,0,0,0,0,0,0,0,大甲區,24.3443647,120.6214837
3503030101,愛朵診所,426800916,臺中市大甲區,臺中市大甲區順天路231號1樓,"西醫一般科,",0,0,0,0,0,0,1,0,0,0,0,1,0,0,0,0,0,0,0,0,0,0,0,0,0,0,0,大甲區,24.3463906,120.6237873
3503030138,岷安診所,04-26873636,臺中市大甲區,臺中市大甲區民生路9-2號1樓,"西醫一般科,",0,0,0,0,0,0,2,0,0,2,0,4,0,0,0,0,0,0,0,0,0,0,0,0,0,0,0,大甲區,24.3463366,120.6272595
3503030110,大元診所,04-26802250,臺中市大甲區,臺中市大甲區順天路136號1樓,"家庭醫學科,兒科,",0,0,0,0,0,0,2,0,0,1,1,3,1,0,0,0,0,0,0,0,0,0,0,0,0,0,0,大甲區,24.3445879,120.6221591
3503030085,安榮診所,04-26801295,臺中市大甲區,臺中市大甲區民生路18號1樓,"外科,",0,0,0,0,0,0,1,0,0,1,1,3,1,0,0,0,0,0,0,0,0,0,0,0,0,0,0,大甲區,24.3467759,120.6270959
3503030067,依誠診所,04-26880569,臺中市大甲區,臺中市大甲區中山路1段971之1號1樓,"外科,",0,0,0,0,0,0,2,0,0,0,0,2,0,0,0,0,0,0,0,0,0,0,0,0,0,0,0,大甲區,24.4389996,120.6499303
1503030010,順安醫院,04-26862328,臺中市大甲區,臺中市大甲區光明路6號,"內科,",0,0,0,0,0,0,3,0,0,2,0,12,2,0,0,0,0,0,0,1,0,0,0,1,0,0,0,大甲區,24.3437551,120.6254951
3536030380,王登源診所,04 26882620,臺中市大甲區,臺中市大甲區中山路一段５７６號,"家庭醫學科,外科,",0,0,0,0,0,0,2,0,0,0,0,1,0,0,0,0,0,0,0,0,0,0,0,0,0,0,0,大甲區,24.3415945,120.6201559
3736040068,清水張牙醫診所,04 26226182,臺中市清水區,臺中市清水區中興街３２－２號,"牙醫一般科,",0,0,0,0,0,0,0,0,1,0,0,0,0,0,0,0,0,0,0,0,0,0,0,0,0,0,0,清水區,24.271521,120.576771
3836040177,仁安堂中醫診所,04-26236651,臺中市清水區,臺中市清水區中山路77、77-1號1樓,"中醫一般科,",0,0,0,0,0,0,0,4,0,0,0,1,0,0,0,0,0,0,0,0,0,0,0,0,0,0,0,清水區,24.262162,120.572321
3536040215,洪耳鼻喉科診所,04 26238611,臺中市清水區,臺中市清水區中山路一五一之三號,"耳鼻喉科,",0,0,0,0,0,0,1,0,0,1,0,0,0,0,0,0,0,0,0,0,0,0,0,0,0,0,0,清水區,24.2911491,120.5875295
3536041454,太慶診所,6238697,臺中市清水區,臺中市清水區新興路116號,"內科,神經科,",0,0,0,0,0,0,1,0,0,0,1,0,0,0,0,0,0,0,0,0,0,2,0,0,0,0,0,清水區,24.266263,120.575916
3503040107,萬安診所,04-26227823,臺中市清水區,臺中市清水區中山路126之2號1樓,"兒科,",0,0,0,0,0,0,2,0,0,1,0,2,0,0,0,0,0,0,0,0,0,0,0,0,0,0,0,清水區,24.2683249,120.5753535
3803040087,致心中醫診所,04-26226566,臺中市清水區,臺中市清水區鎮新南路135號1樓,"中醫一般科,",0,0,0,0,0,0,0,1,0,0,0,0,0,0,0,0,0,0,0,0,0,0,0,0,0,0,0,清水區,24.2715922,120.5688098
3736041270,亞緻牙醫診所,04-26221066,臺中市清水區,臺中市清水區中山路357號1及2樓,"牙醫一般科,",0,0,0,0,0,0,0,0,6,0,0,0,0,0,0,0,0,0,0,0,0,0,0,0,0,0,0,清水區,24.2720081,120.5764033
3536041561,高美內科診所,04-26235207,臺中市清水區,臺中市清水區中山路94號5樓之3,"內科,",0,0,0,0,0,0,2,0,0,0,0,12,1,0,0,0,0,0,0,0,0,0,0,0,0,0,0,清水區,24.2667116,120.5749751
3736040157,王敏星牙醫診所,04 26239166,臺中市清水區,臺中市清水區中山路２５２號,"牙醫一般科,",0,0,0,0,0,0,0,0,1,0,0,0,0,0,0,0,0,0,0,0,0,0,0,0,0,0,0,清水區,24.2724793,120.5770265
3536041507,銓安診所,04-26229588,臺中市清水區,臺中市清水區鰲峰路110號1樓,"內科,",0,0,0,0,0,0,1,0,0,0,1,0,0,0,0,0,0,0,0,0,0,0,0,0,0,0,0,清水區,24.269796,120.5710242
3536041543,順風耳鼻喉科診所,04-26226161,臺中市清水區,臺中市清水區鎮南街41、43號1樓,"兒科,耳鼻喉科,",0,0,0,0,0,0,2,0,0,4,0,1,1,0,0,0,0,0,0,0,0,0,0,0,0,0,0,清水區,24.2674979,120.574498
3536040224,林玉彪診所,04 26233880,臺中市清水區,臺中市清水區光華路１３５號,"西醫一般科,",0,0,0,0,0,0,2,0,0,2,0,1,0,0,0,0,0,0,0,0,0,0,0,0,0,0,0,清水區,24.2682237,120.5738754
3536040055,清水回生家庭醫學科診所,04-26222050,臺中市清水區,臺中市清水區中山路134號,"家庭醫學科,婦產科,",0,0,0,0,0,0,2,0,0,0,1,0,1,0,0,0,0,0,0,0,0,0,0,0,0,0,0,清水區,24.2690578,120.5755987
3536041623,清水祥和診所,04-26232191,臺中市清水區,臺中市清水區五權東路81號1樓,"西醫一般科,",0,0,0,0,0,0,1,0,0,0,1,0,0,0,0,0,0,0,0,0,0,0,0,0,0,0,0,清水區,24.2750066,120.5739129
3803040041,品安中醫診所,04-22620161,臺中市清水區,臺中市清水區中山路239-1號1樓,"中醫一般科,",0,0,0,0,0,0,0,1,0,0,0,1,0,0,0,0,0,0,0,0,0,0,0,0,0,0,0,清水區,24.2684756,120.5748331
1536040553,清濱醫院,04-26283595,臺中市清水區,臺中市清水區港埠路四段195號,"精神科,",0,0,0,0,0,0,3,0,0,3,0,22,3,0,0,0,0,0,4,0,0,0,0,0,0,3,1,清水區,24.2830846,120.5489577
3536041589,楊超博診所,04-26229595,臺中市清水區,臺中市清水區中山路151-8號1樓,"西醫一般科,",0,0,0,0,0,0,2,0,0,1,0,0,0,0,0,0,0,0,0,0,0,0,0,0,0,0,0,清水區,24.265706,120.573835
3536040171,紀小兒科內科診所,04 26228596,臺中市清水區,臺中市清水區中興街６６號,"內科,兒科,",0,0,0,0,0,0,1,0,0,0,1,0,0,0,0,0,0,0,0,0,0,0,0,0,0,0,0,清水區,24.2720861,120.574931
3703040049,旭美牙醫診所,04-26225851,臺中市清水區,臺中市清水區文昌街7號1、2樓,"牙醫一般科,",0,0,0,0,0,0,0,0,2,0,0,0,0,0,0,0,0,0,0,0,0,0,0,0,0,0,0,清水區,24.2694422,120.5777693
3836040033,老春中醫診所,04-26232210,臺中市清水區,臺中市清水區中山路３４３號,"中醫一般科,",0,0,0,0,0,0,0,1,0,0,0,0,0,0,0,0,0,0,0,0,0,0,0,0,0,0,0,清水區,24.2718403,120.576345
3836040088,太安堂中醫診所,04 26225817,臺中市清水區,臺中市清水區中山路１５１號,"中醫一般科,",0,0,0,0,0,0,0,1,0,0,0,0,0,0,0,0,0,0,0,0,0,0,0,0,0,0,0,清水區,24.2655908,120.5738716
3836040159,宗德中醫診所,04-26221329,臺中市清水區,臺中市清水區光華路77號,"中醫一般科,",0,0,0,0,0,0,0,1,0,0,0,0,0,0,0,0,0,0,0,0,0,0,0,0,0,0,0,清水區,24.2646223,120.5724856
3836041245,倉葦中醫診所,04-26232278,臺中市清水區,臺中市清水區中山路１２７－１號１、２樓,"中醫一般科,",0,0,0,0,0,0,0,1,0,0,0,0,0,0,0,0,0,0,0,0,0,0,0,0,0,0,0,清水區,24.2644118,120.5732592
3703040021,月光牙醫診所,04-26263350,臺中市清水區,臺中市清水區鎮政路21號1樓,"牙醫一般科,",0,0,0,0,0,0,0,0,1,0,0,1,0,0,0,0,0,0,0,0,0,0,0,0,0,0,0,清水區,24.2655162,120.5606921
3536040411,何耳鼻喉科診所,04-26221366,臺中市清水區,臺中市清水區中山路199之1、199之2號,"耳鼻喉科,",0,0,0,0,0,0,3,0,0,0,1,2,0,0,0,0,0,0,0,0,0,0,0,0,0,0,0,清水區,24.2676707,120.574699
3736040193,義峰牙醫診所,04 26237347,臺中市清水區,臺中市清水區鎮南街八十一之八號,"牙醫一般科,",0,0,0,0,0,0,0,0,1,0,0,0,0,0,0,0,0,0,0,0,0,0,0,0,0,0,0,清水區,24.2678138,120.5738879
3736040086,華安牙醫診所,04 26234482,臺中市清水區,臺中市清水區新興路１３０號,"牙醫一般科,",0,0,0,0,0,0,0,0,2,0,0,0,0,0,0,0,0,0,0,0,0,0,0,0,0,0,0,清水區,24.266601,120.576035
3736040102,高美牙醫診所,04 6265640,臺中市清水區,臺中市清水區西寧路六十六號,"牙醫一般科,",0,0,0,0,0,0,0,0,1,0,0,0,0,0,0,0,0,0,0,0,0,0,0,0,0,0,0,清水區,24.2719051,120.5751864
3736040120,欣恩牙醫診所,04 26233819,臺中市清水區,臺中市清水區光華路七十五號二樓,"牙醫一般科,",0,0,0,0,0,0,0,0,1,0,0,0,0,0,0,0,0,0,0,0,0,0,0,0,0,0,0,清水區,24.2666852,120.5734412
3736040200,今日微笑牙醫診所,04 26235334,臺中市清水區,臺中市清水區文昌街三十九號,"牙醫一般科,",0,0,0,0,0,0,0,0,1,0,0,0,0,0,0,0,0,0,0,0,0,0,0,0,0,0,0,清水區,24.2699269,120.5765688
3736040219,清水牙醫診所,04 26239998,臺中市清水區,"臺中市清水區中正街二十七號一,二樓","牙醫一般科,",0,0,0,0,0,0,0,0,8,0,0,0,0,0,0,0,0,0,0,0,0,0,0,0,0,0,0,清水區,24.2628872,120.57125
3736040237,吳勵成牙醫診所,04 26223443,臺中市清水區,臺中市清水區清水街十二號,"牙醫一般科,",0,0,0,0,0,0,0,0,1,0,0,0,0,0,0,0,0,0,0,0,0,0,0,0,0,0,0,清水區,24.2691835,120.576285
3536040126,楊外科婦產科診所,04 6237126,臺中市清水區,臺中市清水區光華路１１０號,"外科,婦產科,",0,0,0,0,0,0,1,0,0,0,1,0,1,0,0,0,0,0,0,0,0,0,0,0,0,0,0,清水區,24.2657542,120.5731571
3536040144,明哲診所,04-26227661,臺中市清水區,臺中市清水區中山路449-1號,"外科,",0,0,0,0,0,0,1,0,0,0,1,1,0,0,0,0,0,0,0,0,0,0,0,0,0,0,0,清水區,24.273977,120.5770397
3536040199,全佑家庭醫學科診所,04 26222212,臺中市清水區,臺中市清水區新興路２６０號,"家庭醫學科,",0,0,0,0,0,0,1,0,0,0,0,0,0,0,0,1,0,0,0,0,0,0,0,0,0,0,0,清水區,24.270279,120.577621
3536040233,蘇光緯診所,04 26222300,臺中市清水區,臺中市清水區中山路１９８號,"內科,",0,0,0,0,0,0,1,0,0,0,1,0,0,0,0,0,0,0,0,0,0,0,0,0,0,0,0,清水區,24.271037,120.576421
3536040242,趙見福診所,04 26222699,臺中市清水區,臺中市清水區鎮南街１之２號,"西醫一般科,",0,0,0,0,0,0,1,0,0,1,0,0,0,0,0,0,0,0,0,0,0,0,0,0,0,0,0,清水區,24.266884,120.576907
3536040279,陳振昆診所,426225205,臺中市清水區,臺中市清水區中山路127號,"兒科,",0,0,0,0,0,0,2,0,0,0,0,4,1,0,0,0,0,0,0,0,0,0,0,0,0,0,0,清水區,24.2643853,120.5732445
3536040304,陽明診所,04 26234075,臺中市清水區,臺中市清水區光華路七五 號,"西醫一般科,",0,0,0,0,0,0,1,0,0,0,1,0,1,0,0,0,0,0,0,0,0,0,0,0,0,0,0,清水區,24.2666852,120.5734412
3536040331,清水王眼科診所,04 26235868,臺中市清水區,臺中市清水區中山路１２６－１號,"眼科,",0,0,0,0,0,0,3,0,0,1,1,1,0,0,0,0,0,0,0,0,0,0,0,0,0,0,0,清水區,24.2683247,120.575354
3536040340,蔡篤煌診所,04 26225690,臺中市清水區,臺中市清水區西寧路十五號,"西醫一般科,",0,0,0,0,0,0,2,0,0,1,0,0,2,0,0,0,0,0,0,0,0,0,0,0,0,0,0,清水區,24.2719051,120.5751864
3536040439,嘉佑診所,04 26275066,臺中市清水區,臺中市清水區高美路１１７－３號,"西醫一般科,",0,0,0,0,0,0,2,0,0,0,0,2,0,0,0,0,0,0,0,0,0,0,0,0,0,0,0,清水區,24.2788451,120.5751807
3536041525,清水李復健科診所,(04)26225988,臺中市清水區,臺中市清水區中興街33-3號1、2樓,"復健科,",0,0,0,0,0,0,1,0,0,0,0,0,0,0,0,0,0,4,3,0,0,3,1,0,0,0,0,清水區,24.2715099,120.5759819
3536041534,顏耳鼻喉科診所,04-26220765,臺中市清水區,臺中市清水區光復街110號,"耳鼻喉科,",0,0,0,0,0,0,1,0,0,1,0,1,0,0,0,0,0,0,0,0,0,0,0,0,0,0,0,清水區,24.271261,120.5751499
3536041570,林佳輝診所,04-26236456，26233955,臺中市清水區,臺中市清水區中正街19號1樓,"西醫一般科,",0,0,0,0,0,0,1,0,0,1,0,1,0,0,0,0,0,0,0,0,0,0,0,0,0,0,0,清水區,24.2624686,120.5720201
3736040111,千力牙醫診所,04 26233623,臺中市清水區,臺中市清水區鎮南街1-6號,"牙醫一般科,",0,0,0,0,0,0,0,0,1,0,0,0,0,0,0,0,0,0,0,0,0,0,0,0,0,0,0,清水區,24.266732,120.576691
3736040148,清水王牙醫診所,04 26223699,臺中市清水區,臺中市清水區中華路３４０號,"牙醫一般科,",0,0,0,0,0,0,0,0,1,0,0,0,0,0,0,0,0,0,0,0,0,0,0,0,0,0,0,清水區,24.2686429,120.567052
3536041614,蔡神經科診所,04-26222050,臺中市清水區,臺中市清水區中山路134-2號1-3樓,"家庭醫學科,神經科,",0,0,0,0,0,0,2,0,0,1,0,0,1,0,0,0,0,1,0,0,0,2,0,0,0,0,0,清水區,24.269088,120.575658
1536040535,陽光精神科醫院,04-26202949,臺中市清水區,臺中市清水區大楊南街98號,"精神科,",0,0,0,0,0,0,5,0,0,5,0,35,3,0,0,0,0,0,4,0,0,0,3,0,0,4,1,清水區,24.281092,120.60931
3703040012,逸展牙醫診所,04-26276266,臺中市清水區,臺中市清水區建國路128號1樓,"牙醫一般科,",0,0,0,0,0,0,0,0,1,0,0,0,0,0,0,0,0,0,0,0,0,0,0,0,0,0,0,清水區,24.2699957,120.5600436
3803040014,陽明中醫診所,04-26221958,臺中市清水區,臺中市清水區中山路65號1樓,"中醫一般科,",0,0,0,0,0,0,0,1,0,0,0,0,0,0,0,0,0,0,0,0,0,0,0,0,0,0,0,清水區,24.2770218,120.5783783
3536040251,正明眼科診所,04 26233737,臺中市清水區,臺中市清水區中山路132之1、132之2號,"眼科,",0,0,0,0,0,0,2,0,0,0,2,1,0,0,0,0,0,0,0,0,0,0,0,0,0,0,0,清水區,24.2690275,120.5757277
3536040322,林澤民小兒科診所,04 26233935,臺中市清水區,臺中市清水區中山路２４２之１號,"兒科,",0,0,0,0,0,0,1,0,0,0,1,1,0,0,0,0,0,0,0,0,0,0,0,0,0,0,0,清水區,24.272089,120.576851
3536040402,楊進隆皮膚科診所,04 26239333,臺中市清水區,臺中市清水區南寧里光華路一六七號,"皮膚科,",0,0,0,0,0,0,3,0,0,1,1,0,0,0,0,0,0,0,0,0,0,0,0,0,0,0,0,清水區,24.2660165,120.5731778
3536041445,吳內科診所,04-26227702,臺中市清水區,臺中市清水區西寧路81之1號,"內科,",0,0,0,0,0,0,1,0,0,1,0,0,0,0,0,0,0,0,0,0,0,0,0,0,0,0,0,清水區,24.2716716,120.5743513
3836040060,老振生中醫診所,04-26228415,臺中市清水區,臺中市清水區鎮北街３６號,"中醫一般科,",0,0,0,0,0,0,0,1,0,0,0,0,0,0,0,0,0,0,0,0,0,0,0,0,0,0,0,清水區,24.267899,120.576014
3836040186,宏福中醫診所,04-26261255,臺中市清水區,臺中市清水區五權路六十四號,"中醫一般科,",0,0,0,0,0,0,0,1,0,0,0,0,0,0,0,0,0,1,0,0,0,0,0,0,0,0,0,清水區,24.2772519,120.5630953
3836041254,康庭中醫診所,04-26232988,臺中市清水區,臺中市清水區北寧街７８之１號１樓,"中醫一般科,",0,0,0,0,0,0,0,1,0,0,0,2,0,0,0,0,0,0,0,0,0,0,0,0,0,0,0,清水區,24.2721864,120.5772211
3503040081,優醫五權健康診所,04-26261285,臺中市清水區,臺中市清水區五權路59-5號1樓,"內科,",0,0,0,0,0,0,1,0,0,1,0,2,0,0,0,0,0,0,0,0,0,0,0,0,0,0,0,清水區,24.2764314,120.5687336
3503040063,清水區向陽耳鼻喉科診所,426228595,臺中市清水區,臺中市清水區中山路243-2號1樓,"外科,耳鼻喉科,",0,0,0,0,0,0,4,0,0,2,0,2,0,0,0,0,0,0,0,0,0,0,0,0,0,0,0,清水區,24.2689137,120.5751644
3503040036,慈銘婦產科診所,04-26221660,臺中市清水區,臺中市清水區中興街35-5號1樓、2樓、3樓、4樓,"婦產科,",0,0,0,0,0,0,2,0,0,1,0,8,1,0,0,0,0,0,0,0,0,0,0,0,0,0,0,清水區,24.2715715,120.5759104
3803040023,新厚生中醫診所,04-2622-7777,臺中市清水區,臺中市清水區中山路129之7號1樓,"中醫一般科,",0,0,0,0,0,0,0,4,0,0,0,0,0,0,0,0,0,0,0,0,0,0,0,0,0,0,0,清水區,24.2650192,120.5736303
3503040054,德安診所,0937-589571,臺中市清水區,臺中市清水區鰲峰路36之3號1樓,"內科,",0,0,0,0,0,0,2,0,0,2,0,1,1,0,0,0,0,0,0,0,0,0,0,0,0,0,0,清水區,24.2694271,120.573739
3503040045,安新診所,04-26234416,臺中市清水區,臺中市清水區西寧路155號1、2樓,"內科,",0,0,0,0,0,0,2,0,0,0,0,13,0,0,0,0,0,0,0,0,0,0,0,0,0,0,1,清水區,24.2732569,120.5761568
3703040058,佑紘牙醫診所,04-26270666,臺中市清水區,臺中市清水區五權路183號1、2、3樓,"牙醫一般科,",0,0,0,0,0,0,0,0,2,0,0,0,0,0,0,0,0,0,0,0,0,0,0,0,0,0,0,清水區,24.2767649,120.5648418
2336040014,臺中市清水區衛生所,04-26222639,臺中市清水區,臺中市清水區中山路92號1、2、3樓,"西醫一般科,",0,0,0,0,0,0,1,0,0,0,0,9,0,0,0,0,0,0,0,0,0,0,0,0,0,0,0,清水區,24.2665359,120.5746381
3803040078,仁合堂中醫診所,26236161,臺中市清水區,臺中市清水區中山路431、433號1樓,"中醫一般科,",0,0,0,0,0,0,0,4,0,0,0,0,0,0,0,0,0,0,0,0,0,0,0,0,0,0,0,清水區,24.2735479,120.577003
3503040090,中華博士診所,983361166,臺中市清水區,臺中市清水區中華路633號2樓,"內科,",0,0,0,0,0,0,1,0,0,0,0,3,1,0,0,0,0,0,0,0,0,0,0,0,0,0,1,清水區,24.2779118,120.5745646
3703040067,福華牙醫診所,04-26236623,臺中市清水區,臺中市清水區學園街47號1樓,"牙醫一般科,",0,0,0,0,0,0,0,0,1,0,0,0,0,0,0,0,0,0,0,0,0,0,0,0,0,0,0,清水區,24.2664266,120.5738792
3703040030,新海美學牙醫診所,,臺中市清水區,臺中市清水區五權路59號之1、之2,"牙醫一般科,",0,1,0,0,0,0,0,0,3,0,0,0,0,0,0,0,0,0,0,0,0,0,0,0,0,0,0,清水區,24.2764314,120.5687336
3736040166,安怡牙醫診所,04 6227910,臺中市清水區,臺中市清水區文昌街４０號,"牙醫一般科,",0,0,0,0,0,0,0,0,1,0,0,0,0,0,0,0,0,0,0,0,0,0,0,0,0,0,0,清水區,24.2704813,120.5765796
3536040260,清水王婦產科診所,04 26225909,臺中市清水區,臺中市清水區鎮南街３８號,"婦產科,",0,0,0,0,0,0,1,0,0,1,1,1,1,0,0,0,0,0,0,0,0,0,0,0,0,0,0,清水區,24.2674326,120.5753246
3503050185,朝安診所,04-26337172,臺中市沙鹿區,臺中市沙鹿區鎮南路二段50號1樓,"內科,",0,0,0,0,0,0,2,0,0,0,0,2,0,0,0,0,0,0,0,0,0,0,0,0,0,0,0,沙鹿區,24.2182222,120.5703781
3703050072,昕宇牙醫診所,04-26621001,臺中市沙鹿區,臺中市沙鹿區日新街67號1樓、2樓,"牙醫一般科,",0,0,0,0,0,0,0,0,4,0,0,0,0,0,0,0,0,0,0,0,0,0,0,0,0,0,0,沙鹿區,24.236627,120.562534
3703050054,濟仁牙醫診所,0937-707547,臺中市沙鹿區,臺中市沙鹿區沙田路19-3號1樓、2樓,"牙醫一般科,",0,0,0,0,0,0,0,0,1,0,0,0,0,0,0,0,0,0,0,0,0,0,0,0,0,0,0,沙鹿區,24.2235445,120.5569362
3803050056,康珵中醫診所,04-26630195,臺中市沙鹿區,臺中市沙鹿區中正街42號1樓,"中醫一般科,",0,0,0,0,0,0,0,2,0,0,0,0,0,0,0,0,0,0,0,0,0,0,0,0,0,0,0,沙鹿區,24.236421,120.559893
3503050112,宜家診所,04-26629122,臺中市沙鹿區,臺中市沙鹿區光榮街94號10樓之2、之3、之4,"內科,",0,0,0,0,0,0,2,0,0,0,0,12,0,0,0,0,0,0,0,0,0,0,0,0,0,0,0,沙鹿區,24.2428327,120.565021
3503050069,林令世診所,04-26652588,臺中市沙鹿區,臺中市沙鹿區中山路425號1樓,"精神科,",0,0,0,0,0,0,1,0,0,1,1,0,0,0,0,0,0,0,0,0,0,0,0,0,0,0,0,沙鹿區,24.242532,120.561035
3503050096,王衍宗骨科診所,04-26633706,臺中市沙鹿區,臺中市沙鹿區大新街12之6號1樓、2樓,"骨科,",0,0,0,0,0,0,2,0,0,3,0,2,0,0,0,0,0,6,0,0,0,0,0,0,0,0,0,沙鹿區,24.2402009,120.5608277
3536050453,大維診所,04-26624457,臺中市沙鹿區,臺中市沙鹿區成功東街99號,"西醫一般科,",0,0,0,0,0,0,1,0,0,0,0,0,0,0,0,0,0,0,0,0,0,0,0,0,0,0,0,沙鹿區,24.242004,120.564262
3703050107,新川美學牙醫診所,04-26657000,臺中市沙鹿區,臺中市沙鹿區中山路477之1號1樓、477號1、2樓,"牙醫一般科,",0,0,0,0,0,0,0,0,4,0,0,0,0,0,0,0,0,0,0,0,0,0,0,0,0,0,0,沙鹿區,24.2446942,120.5617263
3503050256,家寶兒科診所,26623799,臺中市沙鹿區,臺中市沙鹿區中山路388-2號1樓,"兒科,",0,0,0,0,0,0,2,0,0,2,0,5,1,0,0,0,0,0,0,0,0,0,0,0,0,0,0,沙鹿區,24.2423073,120.561424
3703050090,美皓牙醫診所,04-26651149,臺中市沙鹿區,臺中市沙鹿區光大路282號1、2樓,"牙醫一般科,",0,0,0,0,0,0,0,0,2,0,0,0,0,0,0,0,0,0,0,0,0,0,0,0,0,0,0,沙鹿區,24.2431918,120.5649915
3703050125,麥迪兒牙醫診所,26623228,臺中市沙鹿區,臺中市沙鹿區鎮南路二段624號2、3、4樓,"牙醫一般科,",0,0,0,0,0,0,0,0,5,0,0,0,0,0,0,0,0,0,0,0,0,0,0,0,0,0,0,沙鹿區,24.2346615,120.5598551
3803050065,祥羚中醫診所,26630301,臺中市沙鹿區,臺中市沙鹿區中山路531之3號1、2樓,"中醫一般科,",0,0,0,0,0,0,0,1,0,0,0,0,0,0,0,0,0,0,0,0,0,0,0,0,0,0,0,沙鹿區,24.248576,120.5639
3803050074,同濟堂中醫診所,04-26628595,臺中市沙鹿區,臺中市沙鹿區中山路477之5號1樓,"中醫一般科,",0,0,0,0,0,0,0,4,0,0,0,2,0,0,0,0,0,0,0,0,0,0,0,0,0,0,0,沙鹿區,24.2446942,120.5617263
3503050167,錦文骨科診所,04-26359668,臺中市沙鹿區,臺中市沙鹿區鎮南路二段437之1號1樓,"骨科,",0,0,0,0,0,0,1,0,0,1,0,5,0,0,0,0,0,3,0,0,0,0,0,0,0,0,0,沙鹿區,24.2304964,120.5661303
3836050057,一品堂中醫診所,04 26655567,臺中市沙鹿區,臺中市沙鹿區四平街６６號,"中醫一般科,",0,0,0,0,0,0,0,11,0,1,0,9,0,0,0,0,0,0,0,0,0,0,0,0,0,0,0,沙鹿區,24.234543,120.560473
3503050176,許紋誠診所,04-26627282,臺中市沙鹿區,臺中市沙鹿區中山路539-1號1樓、539-2號1樓,"內科,",0,0,0,0,0,0,1,0,0,1,0,7,1,0,0,0,0,0,0,0,0,0,0,0,0,0,0,沙鹿區,24.2493544,120.56472
3503050210,港區復康診所,04-26366680,臺中市沙鹿區,臺中市沙鹿區自強路301號2樓之1,"骨科,復健科,",0,0,0,0,0,0,2,0,0,0,0,3,0,0,0,0,0,6,0,0,0,1,0,0,0,0,0,沙鹿區,24.2040971,120.5642364
3503050103,李昭儀兒科診所,04-26366855,臺中市沙鹿區,臺中市沙鹿區光華路113之1號1樓、2樓及113之2號1樓,"兒科,",0,0,0,0,0,0,1,0,0,2,0,6,1,0,0,0,0,0,0,0,0,0,0,0,0,0,0,沙鹿區,24.2318631,120.5612232
3736050206,信美牙醫診所,04 26628117,臺中市沙鹿區,臺中市沙鹿區光榮街四號,"牙醫一般科,",0,0,0,0,0,0,0,0,1,0,0,0,0,0,0,0,0,0,0,0,0,0,0,0,0,0,0,沙鹿區,24.2428873,120.5637992
3703050036,安潔牙醫診所,04-26657220,臺中市沙鹿區,臺中市沙鹿區中山路182號1樓,"牙醫一般科,",0,0,0,0,0,0,0,0,5,0,0,0,0,0,0,0,0,0,0,0,0,0,0,0,0,0,0,沙鹿區,24.2375201,120.563758
3503050247,許志煌兒科診所,04-26623790,臺中市沙鹿區,臺中市沙鹿區民族路72號1樓,"兒科,",0,0,0,0,0,0,1,0,0,2,0,5,0,0,0,0,0,0,0,0,0,0,0,0,0,0,0,沙鹿區,24.2499675,120.5575469
3503050265,佳美診所,04-26621661,臺中市沙鹿區,臺中市沙鹿區日新街115號7樓,"內科,",0,0,0,0,0,0,1,0,0,0,0,3,1,0,0,0,0,0,0,0,0,0,0,0,0,0,0,沙鹿區,24.236997,120.5601542
3836051278,笙華中醫診所,04-26368658,臺中市沙鹿區,臺中市沙鹿區鎮南路２段２２７號,"中醫一般科,",0,0,0,0,0,0,0,1,0,0,0,0,0,0,0,0,0,0,0,0,0,0,0,0,0,0,0,沙鹿區,24.2230603,120.5685588
3536051745,得吉診所,,臺中市沙鹿區,臺中市沙鹿區北勢東路695號1樓,"西醫一般科,",0,0,0,0,0,0,1,0,0,0,0,1,1,0,0,0,0,0,0,0,0,0,0,0,0,0,0,沙鹿區,24.2296066,120.5722129
3703050081,佳士德牙醫診所,04-26335253,臺中市沙鹿區,臺中市沙鹿區北勢東路611號1樓,"牙醫一般科,",0,0,0,0,0,0,0,0,3,0,0,0,0,0,0,0,0,0,0,0,0,0,0,0,0,0,0,沙鹿區,24.2289028,120.5737019
3536050346,鄭地明皮膚科診所,04 26652239,臺中市沙鹿區,臺中市沙鹿區臺灣大道7段996號1樓,"皮膚科,",0,0,0,0,0,0,5,0,0,0,0,2,0,0,0,0,0,0,0,0,0,0,0,0,0,0,0,沙鹿區,24.2407787,120.5621569
2336050010,臺中市沙鹿區衛生所,04-26625040,臺中市沙鹿區,臺中市沙鹿區文昌街20號,,0,0,0,0,0,0,1,0,0,0,0,9,0,0,0,1,0,0,0,0,0,0,0,0,0,0,0,沙鹿區,24.236496,120.5620427
3703050116,悠緹美學牙醫診所,26623228,臺中市沙鹿區,臺中市沙鹿區鎮南路二段624號1、2樓及626號1樓,"牙醫一般科,",0,0,0,0,0,0,0,0,9,0,0,0,0,0,0,0,0,0,0,0,0,0,0,0,0,0,0,沙鹿區,24.2346615,120.5598551
3536051665,昭和診所,26351611,臺中市沙鹿區,臺中市沙鹿區鎮南路二段37號,"西醫一般科,",0,0,0,0,0,0,1,0,0,0,0,0,0,0,0,0,0,0,0,0,0,0,0,0,0,0,0,沙鹿區,24.2178303,120.5700358
3503050194,彰仁外科家醫科診所,04-26622902,臺中市沙鹿區,臺中市沙鹿區大同街65號1樓,"家庭醫學科,外科,",0,0,0,0,0,0,4,0,0,0,1,0,1,0,0,0,0,0,0,0,0,0,0,0,0,0,0,沙鹿區,24.2374927,120.5585694
3836051232,東方中醫診所,04-26365827,臺中市沙鹿區,臺中市沙鹿區沙田路四八之五、四八之六號,"中醫一般科,",0,0,0,0,0,0,0,3,0,0,0,2,0,0,0,0,0,0,0,0,0,0,0,0,0,0,0,沙鹿區,24.2259578,120.5579733
3536051585,程耳鼻喉科診所,26633990,臺中市沙鹿區,臺中市沙鹿區中山路三八六之一號,"耳鼻喉科,",0,0,0,0,0,0,1,0,0,0,0,0,0,0,0,0,0,0,0,0,0,0,0,0,0,0,0,沙鹿區,24.2444377,120.582699
3736051258,博群牙醫診所,04-26325835,臺中市沙鹿區,臺中市沙鹿區北勢東路五二九號,"牙醫一般科,",0,0,0,0,0,0,0,0,2,0,0,0,0,0,0,0,0,0,0,0,0,0,0,0,0,0,0,沙鹿區,24.2121195,120.5776689
936050029,光田醫療社團法人光田綜合醫院,04-26625111,臺中市沙鹿區,臺中市沙鹿區沙田路117號（含大同街5-2號）,"家庭醫學科,內科,外科,兒科,婦產科,骨科,神經科,神經外科,泌尿科,耳鼻喉科,眼科,皮膚科,精神科,復健科,麻醉科,放射診斷科,放射腫瘤科,解剖病理科,核子醫學科,急診醫學科,整形外科,職業醫學科,西醫一般科,牙醫一般科,中醫一般科,",8,0,4,0,0,0,231,12,3,65,0,918,37,1,0,58,0,17,11,50,0,4,1,13,0,9,14,沙鹿區,24.2330236,120.5568745
3503050032,新活力診所,04-2662-2395,臺中市沙鹿區,臺中市沙鹿區中山路493之2號1樓,"西醫一般科,",0,0,0,0,0,0,1,0,0,1,0,0,1,0,0,0,0,0,0,0,0,0,0,0,0,0,0,沙鹿區,24.2465587,120.5623013
3703050134,彰仁牙醫診所,04-26625516,臺中市沙鹿區,臺中市沙鹿區沙田路168號1樓及地下一樓,"牙醫一般科,",0,0,0,0,0,0,0,0,2,0,0,0,0,0,0,0,0,0,0,0,0,0,0,0,0,0,0,沙鹿區,24.2369231,120.5597835
3536051683,孫皓雲診所,04-26652230,臺中市沙鹿區,臺中市沙鹿區北勢東路329號1樓,"兒科,",0,0,0,0,0,0,2,0,0,2,0,4,0,0,0,0,0,0,0,0,0,0,0,0,0,0,0,沙鹿區,24.2183325,120.5793898
3503050149,佳弘診所,04-26625568,臺中市沙鹿區,臺中市沙鹿區七賢路29號1、2、3樓及27巷2號1、2、3樓,"內科,",0,0,0,0,0,0,2,0,0,0,0,12,0,0,0,0,0,0,0,0,0,0,0,0,0,0,0,沙鹿區,24.2395609,120.5681893
3736050028,調元牙醫診所,04 26625306,臺中市沙鹿區,臺中市沙鹿區中山路永和巷３１１號,"牙醫一般科,",0,0,0,0,0,0,0,0,1,0,0,0,0,0,0,0,0,0,0,0,0,0,0,0,0,0,0,沙鹿區,24.2288944,120.5573668
3803050038,楊明輝中醫診所,04-26367868,臺中市沙鹿區,臺中市沙鹿區沙田路64-2號1樓,"中醫一般科,",0,0,0,0,0,0,0,1,0,0,0,0,0,0,0,0,0,0,0,0,0,0,0,0,0,0,0,沙鹿區,24.2333232,120.558846
3503050238,諾恩診所,04-26632111,臺中市沙鹿區,臺中市沙鹿區臺灣大道七段690號1、2、3樓,"家庭醫學科,",0,0,0,0,0,0,1,0,0,0,0,4,0,0,0,0,0,0,0,0,0,0,0,0,0,0,0,沙鹿區,24.235616,120.570911
3536050391,高銘診所,04 26620286,臺中市沙鹿區,臺中市沙鹿區臺灣大道7段791號1樓,"家庭醫學科,",0,0,0,0,0,0,2,0,0,2,0,5,0,0,0,0,0,0,0,0,0,0,0,0,0,0,0,沙鹿區,24.2377261,120.5686935
3736051230,信基牙醫診所,04-26527377,臺中市沙鹿區,臺中市沙鹿區鎮南路二段四五六號,"牙醫一般科,",0,0,0,0,0,0,0,0,1,0,0,0,0,0,0,0,0,0,0,0,0,0,0,0,0,0,0,沙鹿區,24.2267693,120.5677774
3536051674,夏在中診所,(04)26360995,臺中市沙鹿區,臺中市沙鹿區沙田路57?4號一、二樓,"西醫一般科,",0,0,0,0,0,0,1,0,0,2,0,0,0,0,0,0,0,0,0,0,0,0,0,0,0,0,0,沙鹿區,24.2326603,120.558559
3836051269,和平中醫診所,04-26656368,臺中市沙鹿區,臺中市沙鹿區臺灣大道7段1090號,"中醫一般科,",0,0,0,0,0,0,0,1,0,0,0,0,0,0,0,0,0,0,0,0,0,0,0,0,0,0,0,沙鹿區,24.242099,120.558651
3703050045,方圓牙醫診所,04-26624396,臺中市沙鹿區,臺中市沙鹿區中山路400之1號1樓、2樓、3樓,"牙醫一般科,",0,0,0,0,0,0,0,0,8,0,0,0,0,0,0,0,0,0,0,0,0,0,0,0,0,0,0,沙鹿區,24.2429029,120.5616081
3836051241,仁人堂中醫診所,04-26655151,臺中市沙鹿區,臺中市沙鹿區中山路三二０號,"中醫一般科,",0,0,0,0,0,0,0,6,0,0,0,2,0,0,0,0,0,0,0,0,0,0,0,0,0,0,0,沙鹿區,24.2444377,120.582699
3536051549,許煥澤婦產科診所,04-26625511,臺中市沙鹿區,臺中市沙鹿區中山路449之2號,"婦產科,",0,0,0,0,0,0,1,0,0,0,1,1,0,0,0,0,0,0,0,0,0,0,0,0,0,0,0,沙鹿區,24.2434363,120.5613174
3736050064,陳國峰牙醫診所,04 26365429,臺中市沙鹿區,臺中市沙鹿區沙田路75之3號,"牙醫一般科,",0,0,0,0,0,0,0,0,1,0,0,0,0,0,0,0,0,0,0,0,0,0,0,0,0,0,0,沙鹿區,24.233908,120.558442
3503050130,鎮安診所,04-26337172,臺中市沙鹿區,臺中市沙鹿區鎮南路二段50號1樓,"內科,",0,0,0,0,0,0,2,0,0,0,0,2,0,0,0,0,0,0,0,0,0,0,0,0,0,0,2,沙鹿區,24.2182222,120.5703781
3803050010,心慧中醫診所,04-26655669,臺中市沙鹿區,臺中市沙鹿區賢正街75號1樓,"中醫一般科,",0,0,0,0,0,0,0,1,0,0,0,0,0,0,0,0,0,0,0,0,0,0,0,0,0,0,0,沙鹿區,24.2426716,120.5684401
3736050037,名德牙醫診所,04-26627869,臺中市沙鹿區,臺中市沙鹿區中山路５３８號,"牙醫一般科,",0,0,0,0,0,0,0,0,1,0,0,0,0,0,0,0,0,0,0,0,0,0,0,0,0,0,0,沙鹿區,24.249676,120.565758
3736050055,沙鹿張牙醫診所,04 26626684,臺中市沙鹿區,臺中市沙鹿區中山路永和巷２７１號,"牙醫一般科,",0,0,0,0,0,0,0,0,1,0,0,0,0,0,0,0,0,0,0,0,0,0,0,0,0,0,0,沙鹿區,24.2288944,120.5573668
3736050073,劉牙醫診所,04 26628306,臺中市沙鹿區,臺中市沙鹿區中山路永和巷２１２號,"牙醫一般科,",0,0,0,0,0,0,0,0,1,0,0,0,0,0,0,0,0,0,0,0,0,0,0,0,0,0,0,沙鹿區,24.2288944,120.5573668
3736050091,尚青牙醫診所,04 26351095,臺中市沙鹿區,臺中市沙鹿區大同街２３－４號,"牙醫一般科,",0,0,0,0,0,0,0,0,2,0,0,0,0,0,0,0,0,0,0,0,0,0,0,0,0,0,0,沙鹿區,24.2346349,120.5575234
3736050117,文正牙醫診所,04 26325009,臺中市沙鹿區,臺中市沙鹿區英才路１２９號,"牙醫一般科,",0,0,0,0,0,0,0,0,1,0,0,0,0,0,0,0,0,0,0,0,0,0,0,0,0,0,0,沙鹿區,24.225081,120.570293
3736050135,群洲牙醫診所,04 26628636,臺中市沙鹿區,臺中市沙鹿區中山路392號,"牙醫一般科,",0,0,0,0,0,0,0,0,1,0,0,0,0,0,0,0,0,0,0,0,0,0,0,0,0,0,0,沙鹿區,24.2424545,120.56147
3736050153,全春牙醫診所,04 26354954,臺中市沙鹿區,臺中市沙鹿區沙田路８7號,"牙醫一般科,",0,0,0,0,0,0,0,0,1,0,0,0,0,0,0,0,0,0,0,0,0,0,0,0,0,0,0,沙鹿區,24.2342503,120.5585622
3736050162,文心牙醫診所,04 26627223,臺中市沙鹿區,臺中市沙鹿區中正街１５號,"牙醫一般科,",0,0,0,0,0,0,0,0,1,0,0,0,0,0,0,0,0,0,0,0,0,0,0,0,0,0,0,沙鹿區,24.2359001,120.5609554
3736050180,陳洲林牙醫診所,04 26620047,臺中市沙鹿區,臺中市沙鹿區大新街１１之３號,"牙醫一般科,",0,0,0,0,0,0,0,0,1,0,0,0,0,0,0,0,0,0,0,0,0,0,0,0,0,0,0,沙鹿區,24.2399561,120.5610008
3736051221,傑聖牙醫診所,04-26651808,臺中市沙鹿區,臺中市沙鹿區光華路三二二號,"牙醫一般科,",0,0,0,0,0,0,0,0,1,0,0,0,0,0,0,0,0,0,0,0,0,0,0,0,0,0,0,沙鹿區,24.2365438,120.564279
3736051249,彥維牙醫診所,26369600,臺中市沙鹿區,臺中市沙鹿區大同街十五之三號,"牙醫一般科,",0,0,0,0,0,0,0,0,4,0,0,0,0,0,0,0,0,0,0,0,0,0,0,0,0,0,0,沙鹿區,24.2377939,120.5854674
3736051276,安心牙醫診所,04-26652002,臺中市沙鹿區,臺中市沙鹿區中山路531號1樓,"牙醫一般科,",0,0,0,0,0,0,0,0,1,0,0,0,0,0,0,0,0,0,0,0,0,0,0,0,0,0,0,沙鹿區,24.248576,120.5639
3536051692,沙鹿楊耳鼻喉科診所,04-26358168,臺中市沙鹿區,臺中市沙鹿區沙田路53號,"耳鼻喉科,",0,0,0,0,0,0,1,0,0,1,0,0,0,0,0,0,0,0,0,0,0,0,0,0,0,0,0,沙鹿區,24.2323447,120.5586413
3536050293,長明眼科診所,04 26626828,臺中市沙鹿區,臺中市沙鹿區文昌街６號,"眼科,",0,0,0,0,0,0,1,0,0,0,1,0,0,0,0,0,0,0,0,0,0,0,0,0,0,0,0,沙鹿區,24.2360971,120.5621018
3536050328,張治國診所,04 26360202,臺中市沙鹿區,臺中市沙鹿區沙田路７５－４號,"西醫一般科,",0,0,0,0,0,0,1,0,0,1,0,0,1,0,0,0,0,0,0,0,1,0,0,0,0,0,0,沙鹿區,24.2339968,120.5584567
3536050382,沙鹿李眼科診所,04 26657113,臺中市沙鹿區,臺中市沙鹿區沙田路１２８之１號,"眼科,",0,0,0,0,0,1,1,0,0,0,1,1,0,0,0,0,0,0,0,0,0,0,0,0,0,0,0,沙鹿區,24.2358661,120.5593324
3536050435,潔新眼科診所,04 26625736,臺中市沙鹿區,臺中市沙鹿區文昌街31號1樓,"眼科,",0,0,0,0,2,0,3,0,0,1,1,2,0,0,0,0,0,0,0,0,0,0,0,0,0,0,0,沙鹿區,24.2370373,120.5617884
3536050506,蕭英宗耳鼻喉科診所,26631879,臺中市沙鹿區,臺中市沙鹿區中山路三四八號,"耳鼻喉科,",0,0,0,0,0,0,4,0,0,0,0,9,0,0,0,0,0,0,0,0,0,0,0,0,0,0,0,沙鹿區,24.2444377,120.582699
3536051530,沙鹿李小兒科診所,04-26657022,臺中市沙鹿區,臺中市沙鹿區沙田路一七二號,"兒科,",0,0,0,0,0,0,2,0,0,0,0,2,0,0,0,0,0,0,0,0,0,0,0,0,0,0,0,沙鹿區,24.2259578,120.5579733
3536051638,舒安婦產科診所,04-26630216,臺中市沙鹿區,臺中市沙鹿區中山路一六一之一號一、二樓,"婦產科,",0,0,0,0,0,0,1,0,0,0,0,0,0,0,0,0,0,0,0,0,0,0,0,0,0,0,0,沙鹿區,24.2444377,120.582699
3536051656,朱博欣小兒科診所,04-26630086,臺中市沙鹿區,臺中市沙鹿區中山路487之2號1樓,"兒科,",0,0,0,0,0,0,2,0,0,0,0,5,0,0,0,0,0,0,0,0,0,0,0,0,0,0,0,沙鹿區,24.2453336,120.5620457
3836050191,德安中醫聯合診所,04 26626628,臺中市沙鹿區,臺中市沙鹿區大同街明光巷二十號,"中醫一般科,",0,0,0,0,0,0,0,3,0,0,0,1,2,0,0,0,0,0,0,0,0,0,0,0,0,0,0,沙鹿區,24.237077,120.5585487
3536050480,昌和診所,04 26364819,臺中市沙鹿區,臺中市沙鹿區福興里鎮南路二段２４９號,"西醫一般科,",0,0,0,0,0,0,1,0,0,1,0,0,0,0,0,0,0,0,0,0,0,0,0,0,0,0,0,沙鹿區,24.2237124,120.568503
3536051576,黃如峰診所,26150107,臺中市沙鹿區,臺中市沙鹿區中清路六段271號1樓,"內科,",0,0,0,0,0,0,1,0,0,0,0,0,0,0,0,0,0,0,0,0,0,0,0,0,0,0,0,沙鹿區,24.2464528,120.6079078
3536051601,小太陽小兒科診所,04-26365757,臺中市沙鹿區,臺中市沙鹿區鎮南路二段六三一號,"兒科,",0,0,0,0,0,0,3,0,0,2,0,2,0,0,0,0,0,0,0,0,0,0,0,0,0,0,0,沙鹿區,24.2267693,120.5677774
3536051754,何秋燕皮膚科診所,04-26362982,臺中市沙鹿區,臺中市沙鹿區沙田路53-4、53-5號1樓,"皮膚科,",0,0,0,0,0,0,6,0,0,0,0,6,0,0,0,0,0,0,0,0,0,0,0,0,0,0,0,沙鹿區,24.2323676,120.5585546
3836051287,和敬堂中醫診所,04-26632087,臺中市沙鹿區,臺中市沙鹿區光大路２５６號１樓,"中醫一般科,",0,0,0,0,0,0,0,2,0,0,0,0,0,0,0,0,0,0,0,0,0,0,0,0,0,0,0,沙鹿區,24.2436324,120.565055
3736051329,專誠牙醫診所,04-26366168,臺中市沙鹿區,臺中市沙鹿區斗潭路503號1樓及2樓,"牙醫一般科,",0,0,0,0,0,0,0,0,4,0,0,0,0,0,0,0,0,0,0,0,0,0,0,0,0,0,0,沙鹿區,24.232858,120.5575697
3536051736,晨安診所,04-26520606,臺中市沙鹿區,臺中市沙鹿區北勢東路695號1樓,"西醫一般科,",0,0,0,0,0,0,2,0,0,0,0,2,0,0,0,0,0,0,0,0,0,0,0,0,0,0,0,沙鹿區,24.2296066,120.5722129
3536051718,真善美診所,04-26656037,臺中市沙鹿區,臺中市沙鹿區成功東街117、119號,"內科,",0,0,0,0,0,0,1,0,0,1,0,1,0,0,0,0,0,0,0,0,0,0,0,0,0,0,0,沙鹿區,24.2418795,120.5647173
3736051302,威登牙醫診所,04-26655335,臺中市沙鹿區,臺中市沙鹿區鹿寮里成功東街45號及45-1號,"牙醫一般科,",0,0,0,0,0,0,0,0,3,0,0,0,0,0,0,0,0,0,0,0,0,0,0,0,0,0,0,沙鹿區,24.2424479,120.5626184
3736051310,大樹牙醫診所,04-26621175,臺中市沙鹿區,臺中市沙鹿區臺灣大道七段490號1樓及2樓,"牙醫一般科,",0,0,0,0,0,0,0,0,4,0,0,0,0,0,0,0,0,0,0,0,0,0,0,0,0,0,0,沙鹿區,24.2334053,120.5722337
3503050041,林榮宗診所,04-26625181,臺中市沙鹿區,臺中市沙鹿區光大路240號1樓,"內科,",0,0,0,0,0,0,1,0,0,0,0,3,0,0,0,0,0,0,0,0,0,0,0,0,0,0,1,沙鹿區,24.2438908,120.5651086
3503050078,醫達人診所,04-26315951,臺中市沙鹿區,臺中市沙鹿區正義路2號2樓,"內科,",0,0,0,0,0,0,2,0,0,0,0,2,0,0,0,0,0,0,0,0,0,0,0,0,0,0,0,沙鹿區,24.2094089,120.5690443
3503050014,張和興皮膚科診所,04-26655026,臺中市沙鹿區,臺中市沙鹿區四平街151號1樓,"皮膚科,",0,0,0,0,0,0,1,0,0,1,0,0,0,0,0,0,0,0,0,0,0,0,0,0,0,0,0,沙鹿區,24.2367419,120.560622
3536050131,鴻仁婦產科診所,04 26625162,臺中市沙鹿區,臺中市沙鹿區中山路１７９號,"婦產科,",0,0,0,0,0,0,1,0,0,0,0,0,0,0,0,0,0,0,0,0,0,0,0,0,0,0,0,沙鹿區,24.2371647,120.5641532
3536050337,魏重耀婦產科診所,04 26317778,臺中市沙鹿區,臺中市沙鹿區鎮南路二段四一八號,"婦產科,",0,0,0,0,0,0,1,0,0,0,0,1,0,0,0,0,0,0,0,0,0,0,0,0,0,0,0,沙鹿區,24.2267693,120.5677774
3536051709,莊耳鼻喉科診所,04-26369977,臺中市沙鹿區,臺中市沙鹿區沙田路82號1樓,"耳鼻喉科,",0,0,0,0,0,0,2,0,0,0,2,0,1,0,0,0,0,0,0,0,0,0,0,0,0,0,0,沙鹿區,24.2340627,120.5589626
3536060093,保順診所,04 26577995,臺中市梧棲區,臺中市梧棲區居仁街９１號,"西醫一般科,",0,0,0,0,0,0,1,0,0,0,2,2,0,0,0,0,0,0,0,0,0,0,0,0,0,0,0,梧棲區,24.257248,120.535498
936060016,童綜合醫療社團法人童綜合醫院,04-26581919,臺中市梧棲區,臺中市梧棲區臺灣大道八段699號,"家庭醫學科,內科,外科,兒科,婦產科,骨科,神經科,神經外科,泌尿科,耳鼻喉科,眼科,皮膚科,精神科,復健科,麻醉科,放射診斷科,放射腫瘤科,解剖病理科,臨床病理科,核子醫學科,急診醫學科,整形外科,職業醫學科,西醫一般科,牙醫一般科,中醫一般科,",12,1,3,0,0,0,345,4,15,72,0,1499,68,0,0,78,1,28,22,79,0,6,1,19,3,11,16,梧棲區,24.2469991,120.5423752
1536061114,忠港醫院,04-26580298,臺中市梧棲區,臺中市梧棲區文化里中興路49號,"內科,",0,0,0,0,0,0,5,0,0,3,0,21,4,0,0,1,0,0,0,1,0,0,0,3,0,0,1,梧棲區,24.2524395,120.5360502
3736060042,莊世傳牙醫診所,04 6571062,臺中市梧棲區,臺中市梧棲區中和街二十號,"牙醫一般科,",0,0,0,0,0,0,0,0,1,0,0,0,0,0,0,0,0,0,0,0,0,0,0,0,0,0,0,梧棲區,24.2564589,120.5321368
3736061094,王維堅牙醫診所,04-26566696,臺中市梧棲區,臺中市梧棲區臺灣大道九段51號1樓,"牙醫一般科,",0,0,0,0,0,0,0,0,1,0,0,0,0,0,0,0,0,0,0,0,0,0,0,0,0,0,0,梧棲區,24.2506255,120.5334413
3536060146,張瑞林小兒科診所,04 26576413,臺中市梧棲區,臺中市梧棲區中興路１２８巷５號,"兒科,",0,0,0,0,0,0,1,0,0,0,1,1,0,0,0,0,0,0,0,0,0,0,0,0,0,0,0,梧棲區,24.2536074,120.5345204
3536060155,義德診所,04 26577657,臺中市梧棲區,臺中市梧棲區文昌路１６４號,"西醫一般科,",0,0,0,0,0,0,2,0,0,1,0,0,1,0,0,0,0,0,0,0,0,0,0,0,0,0,0,梧棲區,24.24249,120.547586
3836060035,健楨中醫診所,04-26561201,臺中市梧棲區,臺中市梧棲區港埠路一段１０３１號,"中醫一般科,",0,0,0,0,0,0,0,1,0,0,0,0,0,0,0,0,0,0,0,0,0,0,0,0,0,0,0,梧棲區,24.2475874,120.53494
1536060037,明德醫院,04-26579595,臺中市梧棲區,臺中市梧棲區仁美街３３巷５０號,"內科,精神科,復健科,",0,0,0,0,0,0,7,0,0,3,0,15,7,0,0,3,0,2,2,3,0,2,0,0,0,1,2,梧棲區,24.2538369,120.5357803
3536061241,安心診所,04-26562059,臺中市梧棲區,臺中市梧棲區港埠路一段1115號1樓,"家庭醫學科,",0,0,0,0,0,0,1,0,0,1,0,1,0,0,0,0,0,0,0,0,0,0,0,0,0,0,0,梧棲區,24.2493945,120.5348516
2336060016,臺中市梧棲區衛生所,04 26562809,臺中市梧棲區,臺中市梧棲區雲集街70巷3號,"家庭醫學科,",0,0,0,0,0,0,1,0,0,0,0,5,0,0,0,2,0,0,0,1,0,0,0,0,0,0,0,梧棲區,24.2549303,120.5320221
3703060014,美澄牙醫診所,04-26576887,臺中市梧棲區,臺中市梧棲區中興路370號1樓,"牙醫一般科,",0,0,0,0,0,0,0,0,1,0,0,0,0,0,0,0,0,0,0,0,0,0,0,0,0,0,0,梧棲區,24.2577453,120.5349891
3536060057,宏恩診所,426562957,臺中市梧棲區,臺中市梧棲區梧棲路１３２號,"家庭醫學科,",0,0,0,0,0,0,1,0,0,0,1,0,0,0,0,0,0,0,0,0,0,0,0,0,0,0,0,梧棲區,24.2562594,120.5295914
3503060010,明生診所,04-26561456,臺中市梧棲區,臺中市梧棲區中央路一段931號1樓,"家庭醫學科,兒科,",0,0,0,0,0,0,3,0,0,2,0,1,1,0,0,0,0,0,0,0,0,0,0,0,0,0,0,梧棲區,24.2488667,120.5380887
3803060043,王海亭中醫診所,04-26564514,臺中市梧棲區,臺中市梧棲區中央路一段666-8號1樓,"中醫一般科,",0,0,0,0,0,0,0,1,0,0,0,0,0,0,0,0,0,0,0,0,0,0,0,0,0,0,0,梧棲區,24.2435135,120.5373769
3503060029,紀宏昇耳鼻喉科診所,04-2656-3681,臺中市梧棲區,臺中市梧棲區中央路一段923-1號1樓,"耳鼻喉科,",0,0,0,0,0,0,1,0,0,1,1,0,0,0,0,0,0,0,0,0,0,0,0,0,0,0,0,梧棲區,24.2485664,120.5382614
3803060016,濟善堂中醫診所,04-26581896,臺中市梧棲區,臺中市梧棲區中興路132號1樓,"中醫一般科,",0,0,0,0,0,0,0,2,0,0,0,0,0,0,0,0,0,0,0,0,0,0,0,0,0,0,0,梧棲區,24.2535571,120.5343358
3503060038,瑞比診所,04-26576117,臺中市梧棲區,臺中市梧棲區港埠路一段827巷2號1樓,"西醫一般科,",0,0,0,0,0,0,3,0,0,0,0,0,1,0,0,0,0,0,0,0,0,0,0,0,0,0,0,梧棲區,24.2440919,120.5333408
3836061103,六安堂中醫診所,04-26568780,臺中市梧棲區,臺中市梧棲區中興路178巷90號1樓,"中醫一般科,",0,0,0,0,0,0,0,1,0,0,0,0,0,0,0,0,0,0,0,0,0,0,0,0,0,0,0,梧棲區,24.2557782,120.5350299
3836060071,福川堂中醫診所,04-26569206,臺中市梧棲區,臺中市梧棲區梧棲路１４９號,"中醫一般科,",0,0,0,0,0,0,0,1,0,0,0,0,0,0,0,0,0,0,0,0,0,0,0,0,0,0,0,梧棲區,24.256868,120.5295437
3803060025,寶成中醫診所,26580011,臺中市梧棲區,臺中市梧棲區文化路一段86之1號1樓,"中醫一般科,",0,0,0,0,0,0,0,3,0,0,0,1,0,0,0,0,0,0,0,0,0,0,0,0,0,0,0,梧棲區,24.2506671,120.5293128
3703060023,璞御梧棲牙醫診所,04-26580931,臺中市梧棲區,臺中市梧棲區大智路二段241號1、2樓,"牙醫一般科,",0,0,0,0,0,0,0,0,2,0,0,0,0,0,0,0,0,0,0,0,0,0,0,0,0,0,0,梧棲區,24.2588212,120.5358588
3536060048,啟恩診所,04 26562268,臺中市梧棲區,臺中市梧棲區中和街８１號,"家庭醫學科,內科,",0,0,0,0,0,0,3,0,0,1,1,5,1,0,0,0,0,0,0,0,0,0,0,0,0,0,1,梧棲區,24.2552114,120.5314656
3803060034,李祐任中醫診所,26651771,臺中市梧棲區,臺中市梧棲區文明街29號1樓,"中醫一般科,",0,0,0,0,0,0,0,1,0,0,0,1,0,0,0,0,0,0,0,0,0,0,0,0,0,0,0,梧棲區,24.2417639,120.5564442
3736060051,白牙醫診所,04 26575923,臺中市梧棲區,臺中市梧棲區中央路一段八五九之二號,"牙醫一般科,",0,0,0,0,0,0,0,0,1,0,0,0,0,0,0,0,0,0,0,0,0,0,0,0,0,0,0,梧棲區,24.2335773,120.534326
3503070089,后豐診所,04-25585358,臺中市后里區,臺中市后里區三豐路四段61號1、2、3樓,"內科,",0,0,0,0,0,0,1,0,0,1,0,6,0,0,0,0,0,0,0,0,0,0,0,0,0,0,0,后里區,24.3104181,120.7225344
3536070213,后里診所,04 25581125,臺中市后里區,臺中市后里區四村路７６號,"家庭醫學科,",0,0,0,0,0,0,1,0,0,0,0,1,0,0,0,0,0,0,0,0,0,0,0,0,0,0,0,后里區,24.3046955,120.7128768
3503070070,愛明眼科診所,04-25588488,臺中市后里區,臺中市后里區甲后路一段626號1樓、2樓,"眼科,",0,0,0,0,0,0,1,0,0,0,0,1,0,0,0,0,0,0,0,0,0,0,0,0,0,0,0,后里區,24.3091613,120.7211525
3536071327,蕭天讚小兒科診所,04 25584352,臺中市后里區,臺中市后里區甲后路一段589號1樓,"兒科,",0,0,0,0,0,0,1,0,0,0,0,1,1,0,0,0,0,0,0,0,0,0,0,0,0,0,0,后里區,24.3093238,120.7189744
3536070151,易生診所,04 25572957,臺中市后里區,臺中市后里區屯北村三光路８１號,"內科,",0,0,0,0,0,0,1,0,0,0,0,0,0,0,0,0,0,0,0,0,0,0,0,0,0,0,0,后里區,24.3062911,120.7110326
3836070059,嘉慶中醫診所,04-25580896,臺中市后里區,臺中市后里區甲后路一段638號,"中醫一般科,",0,0,0,0,0,0,0,1,0,0,0,0,0,0,0,0,0,1,0,0,0,0,0,0,0,0,0,后里區,24.309249,120.7208936
3836071207,弘恩中醫診所,,臺中市后里區,臺中市后里區文明路31巷1之2號1、2樓,"中醫一般科,",0,0,0,0,0,0,0,1,0,0,0,0,0,0,0,0,0,0,0,0,0,0,0,0,0,0,0,后里區,24.306179,120.7207037
3536070179,國泰診所,04-25577378,臺中市后里區,臺中市后里區甲后路一段255號1樓,"家庭醫學科,內科,",0,0,0,0,0,0,1,0,0,0,0,1,1,0,0,0,0,0,0,0,0,0,0,0,0,0,1,后里區,24.3090302,120.7261721
3803070021,順心中醫診所,04-25589298,臺中市后里區,臺中市后里區甲后路一段579號1樓,"中醫一般科,",0,0,0,0,0,0,0,1,0,0,0,0,0,0,0,0,0,0,0,0,0,0,0,0,0,0,0,后里區,24.3092924,120.7192337
3736070048,永美牙醫診所,04 25567239,臺中市后里區,臺中市后里區后里里甲后路一段417號,"牙醫一般科,",0,0,0,0,0,0,0,0,1,0,0,0,0,0,0,0,0,0,0,0,0,0,0,0,0,0,0,后里區,24.3088544,120.723147
3736070066,后里林牙醫診所,04 25560759,臺中市后里區,臺中市后里區四村路八十二號,"牙醫一般科,",0,0,0,0,0,0,0,0,2,0,0,0,0,0,0,0,0,0,0,0,0,0,0,0,0,0,0,后里區,24.3051827,120.7130332
3736070093,惠元牙醫診所,04 25570006,臺中市后里區,臺中市后里區民生路９２－１號,"牙醫一般科,",0,0,0,0,0,0,0,0,1,0,0,0,0,0,0,0,0,0,0,0,0,0,0,0,0,0,0,后里區,24.307329,120.7163122
3736070100,羅光志牙醫診所,04 25570516,臺中市后里區,臺中市后里區中山路７９號,"牙醫一般科,",0,0,0,0,0,0,0,0,1,0,0,0,0,0,0,0,0,0,0,0,0,0,0,0,0,0,0,后里區,24.305568,120.7118569
3536070188,施博元診所,04 25572699,臺中市后里區,臺中市后里區民生路220號,"西醫一般科,",0,0,0,0,0,0,1,0,0,1,0,0,1,0,0,0,0,0,0,0,0,0,0,0,0,0,0,后里區,24.3062528,120.7137614
3536070197,生和診所,04-25562163,臺中市后里區,臺中市后里區甲后路一段489號1樓,"西醫一般科,",0,0,0,0,0,0,1,0,0,0,1,0,0,0,0,0,0,0,0,0,0,0,0,0,0,0,0,后里區,24.3090809,120.720504
3536070231,資生診所,04 25562059,臺中市后里區,臺中市后里區四村路６１號,"西醫一般科,",0,0,0,0,0,0,1,0,0,1,0,2,0,0,0,0,0,0,0,0,0,0,0,0,0,0,0,后里區,24.3044956,120.7125415
3536070240,佳音診所,04 25573268,臺中市后里區,臺中市后里區甲后路一段400號1、2樓,"西醫一般科,",0,0,0,0,0,0,3,0,0,2,0,2,2,0,0,0,0,0,0,0,0,0,0,0,0,0,0,后里區,24.309213,120.72557
3536071292,大明眼科診所,04 25585598,臺中市后里區,臺中市后里區文明路三一巷一之三號,"眼科,",0,0,0,0,0,1,1,0,0,1,0,0,0,0,0,0,0,0,0,0,0,0,0,0,0,0,0,后里區,24.3068892,120.7189263
3536071318,健安內科診所,04 25586398,臺中市后里區,臺中市后里區甲后路一段363號2樓、3樓,"內科,",0,0,0,0,0,0,2,0,0,0,0,10,2,0,0,0,0,0,0,0,0,0,0,0,0,0,0,后里區,24.3089124,120.7242557
3536071372,張偉煌診所,04 25580008,臺中市后里區,臺中市后里區三豐路三段1070號1樓,"內科,",0,0,0,0,0,0,1,0,0,0,1,1,0,0,0,0,0,0,0,0,0,0,0,0,0,0,0,后里區,24.3075542,120.7221866
3536070099,后里張婦產外科診所,04 25560555,臺中市后里區,臺中市后里區甲后路一段531號1樓、2樓,"外科,婦產科,",0,0,0,0,0,0,1,0,0,1,0,0,1,0,0,0,0,0,0,0,0,0,0,0,0,0,0,后里區,24.3092295,120.7195189
3536070106,鄭文瑞婦產科診所,04 25573382,臺中市后里區,臺中市后里區文明路１９０號,"婦產科,",0,0,0,0,0,0,1,0,0,0,0,0,1,0,0,0,0,0,0,0,0,0,0,0,0,0,0,后里區,24.3069758,120.7169023
2336070012,臺中市后里區衛生所,04-25562048,臺中市后里區,臺中市后里區公安路86號,"西醫一般科,",0,0,0,0,0,0,1,0,0,0,0,10,0,0,0,0,0,0,0,0,0,0,0,0,0,0,0,后里區,24.30518,120.7103406
3736070039,黃牙醫診所,04-225561819,臺中市后里區,臺中市后里區甲后路一段611號1樓,"牙醫一般科,",0,0,0,0,0,0,0,0,1,0,0,0,0,0,0,0,0,0,0,0,0,0,0,0,0,0,0,后里區,24.3095773,120.7175096
3736070075,婉玲牙醫診所,04 25572699,臺中市后里區,臺中市后里區民生路２２０之１號,"牙醫一般科,",0,0,0,0,0,0,0,0,1,0,0,0,0,0,0,0,0,0,0,0,0,0,0,0,0,0,0,后里區,24.3063101,120.7138336
3736070119,欽泰牙醫診所,04 25573003,臺中市后里區,臺中市后里區甲后路一段586號,"牙醫一般科,",0,0,0,0,0,0,0,0,1,0,0,0,0,0,0,0,0,0,0,0,0,0,0,0,0,0,0,后里區,24.3090539,120.7217949
3536071434,望晴診所,04-25585284,臺中市后里區,臺中市后里區甲后路一段813號1、2樓,"西醫一般科,",0,0,0,0,0,0,1,0,0,1,0,1,0,0,0,0,0,0,0,0,0,0,0,0,0,0,0,后里區,24.3103182,120.7130952
3536071425,后里維恩耳鼻喉科診所,04-25586608,臺中市后里區,臺中市后里區甲后路一段480號1樓,"耳鼻喉科,",0,0,0,0,0,0,3,0,0,0,0,2,0,0,0,0,0,0,0,0,0,0,0,0,0,0,0,后里區,24.3091497,120.7239563
3503070016,和康神經科診所,04-25580782,臺中市后里區,臺中市后里區福音路26號1樓(部分)、2樓,"神經科,",0,0,0,0,0,0,1,0,0,0,0,3,1,0,0,0,0,7,2,1,0,1,0,0,0,0,0,后里區,24.3051489,120.713489
3503070043,甲后莊醫師診所,04-25586608,臺中市后里區,臺中市后里區甲后路一段480號1樓,"兒科,",0,0,0,0,0,0,1,0,0,0,0,0,0,0,0,0,0,0,0,0,0,0,0,0,0,0,0,后里區,24.3091497,120.7239563
3703070010,王奕凱牙醫診所,04-25577808,臺中市后里區,臺中市后里區中山路80號1樓,"牙醫一般科,",0,0,0,0,0,0,0,0,1,0,0,0,0,0,0,0,0,0,0,0,0,0,0,0,0,0,0,后里區,24.3050579,120.7119063
3803070030,弘春堂中醫診所,04-25586767,臺中市后里區,臺中市后里區民生路61號1、2、3樓,"中醫一般科,",0,0,0,0,0,0,0,7,0,0,0,0,0,0,0,0,0,2,0,0,0,0,0,0,0,0,0,后里區,24.3083096,120.7168533
3503070052,嘉家診所,425572687,臺中市后里區,臺中市后里區民生路82號1樓,"西醫一般科,",0,0,0,0,0,0,3,0,0,2,0,0,2,0,0,0,0,0,0,0,0,0,0,0,0,0,0,后里區,24.307807,120.7164855
3703070029,星宇牙醫診所,04-25566788,臺中市后里區,臺中市后里區甲后路一段712號1樓及2樓,"牙醫一般科,",0,0,0,0,0,0,0,0,3,0,0,0,0,0,0,0,0,0,0,0,0,0,0,0,0,0,0,后里區,24.3093633,120.7196728
3836070031,元安中醫診所,04-25572349,臺中市后里區,臺中市后里區福音路四十八號,"中醫一般科,",0,0,0,0,0,0,0,1,0,0,0,0,0,0,0,0,0,0,0,0,0,0,0,0,0,0,0,后里區,24.3056469,120.712002
3503070098,和昇神經科診所,04-25580782,臺中市后里區,臺中市后里區福音路26號1樓(部分),"神經科,",0,0,0,0,0,0,1,0,0,0,0,1,0,0,0,0,0,0,0,0,0,0,0,0,0,0,0,后里區,24.3051489,120.713489
3703070038,米特精品牙醫診所,04-22580123,臺中市后里區,臺中市后里區甲后路一段865號1樓、867號1樓,"牙醫一般科,",0,0,0,0,0,0,0,0,1,0,0,0,0,0,0,0,0,0,0,0,0,0,0,0,0,0,0,后里區,24.3105181,120.7123442
3536071381,吉泰診所,04-25585980,臺中市后里區,臺中市后里區甲后路一段165號1樓、167號1樓,"內科,",0,0,0,0,0,0,1,0,0,0,0,2,0,0,0,0,0,0,0,0,0,0,0,0,0,0,0,后里區,24.3091785,120.728817
3736070137,弘光牙醫診所,04-25577341,臺中市后里區,臺中市后里區三豐路三段1088號1樓,"牙醫一般科,",0,0,0,0,0,0,0,0,1,0,0,0,0,0,0,0,0,0,0,0,0,0,0,0,0,0,0,后里區,24.3078774,120.7222821
3836071225,德和中醫診所.,04-25562717,臺中市后里區,臺中市后里區四村路102號1樓,"中醫一般科,",0,0,0,0,0,0,0,5,0,0,0,0,0,0,0,0,0,0,0,0,0,0,0,0,0,0,0,后里區,24.3053705,120.7132752
3536071416,李煥照婦產專科診所,04-25581886,臺中市后里區,臺中市后里區文明路33號1樓,"婦產科,",0,0,0,0,0,0,1,0,0,0,0,0,1,0,0,0,0,0,0,0,0,0,0,0,0,0,0,后里區,24.3063145,120.7205168
3536070115,光仁診所,04 25562501,臺中市后里區,臺中市后里區三豐路4段17號1樓,"家庭醫學科,兒科,",0,0,0,0,0,0,1,0,0,0,1,0,1,0,0,0,0,0,0,0,0,0,0,0,0,0,0,后里區,24.3259601,120.7285573
3536071363,后安診所,(04)25587800,臺中市后里區,臺中市后里區甲后路一段315號1樓,"西醫一般科,",0,0,0,0,0,0,2,0,0,1,1,1,0,0,0,0,0,0,0,0,0,0,0,0,0,0,0,后里區,24.3092253,120.7253049
3736080026,岡林牙醫診所,04 25622289,臺中市神岡區,臺中市神岡區神岡路１４１號,"牙醫一般科,",0,0,0,0,0,0,0,0,1,0,0,0,0,0,0,0,0,0,0,0,0,0,0,0,0,0,0,神岡區,24.256297,120.6581627
3803080018,福佑中醫診所,04-2527-9288,臺中市神岡區,臺中市神岡區五權路15號1、2樓,"中醫一般科,",0,0,0,0,0,0,0,1,0,0,0,1,0,0,0,0,0,0,0,0,0,0,0,0,0,0,0,神岡區,24.2585627,120.712911
3536081305,保東診所,04-25622390,臺中市神岡區,臺中市神岡區神岡路七十三號,"西醫一般科,",0,0,0,0,0,0,1,0,0,1,0,0,0,0,0,0,0,0,0,0,0,0,0,0,0,0,0,神岡區,24.2499057,120.6817589
3703080052,開心美學牙醫診所,25633396,臺中市神岡區,臺中市神岡區民生路13號1樓、2樓,"牙醫一般科,",0,0,0,0,0,0,0,0,4,0,0,0,0,0,0,0,0,0,0,0,0,0,0,0,0,0,0,神岡區,24.2462481,120.6828577
3536081350,杏安診所,04 25613506,臺中市神岡區,臺中市神岡區中山路654號1樓,"西醫一般科,",0,0,0,0,0,0,1,0,0,0,1,0,1,0,0,0,0,0,0,0,0,0,0,0,0,0,0,神岡區,24.2473189,120.6819173
3836080046,德安中醫診所,04-25628815,臺中市神岡區,臺中市神岡區昌平路五段357號,"中醫一般科,",0,0,0,0,0,0,0,3,0,0,0,0,0,0,0,0,0,0,0,0,0,0,0,0,0,0,0,神岡區,24.2457007,120.6843249
3836080135,思恩堂中醫診所,04-25617135,臺中市神岡區,臺中市神岡區神岡東街三、五號,"中醫一般科,",0,0,0,0,0,0,0,1,0,0,0,0,0,0,0,0,0,0,0,0,0,0,0,0,0,0,0,神岡區,24.2561496,120.6615975
3836081196,聖達中醫診所,04-25616163,臺中市神岡區,臺中市神岡區中山路六七三號,"中醫一般科,",0,0,0,0,0,0,0,2,0,0,0,1,0,0,0,0,0,0,0,0,0,0,0,0,0,0,0,神岡區,24.252859,120.673968
3536081323,晉安診所,04-25632666,臺中市神岡區,臺中市神岡區中山路865號1樓、867號3樓、867號4樓,"內科,",0,0,0,0,0,0,2,0,0,1,0,13,0,0,0,0,0,0,0,0,0,0,0,0,0,0,0,神岡區,24.2519261,120.6746404
3736080179,益民牙醫診所,04 25612985,臺中市神岡區,臺中市神岡區神圳路2-6號1及2樓,"牙醫一般科,",0,0,0,0,0,0,0,0,1,0,0,1,0,0,0,0,0,0,0,0,0,0,0,0,0,0,0,神岡區,24.2584492,120.6612376
3803080027,翔甯中醫診所,04-25150998,臺中市神岡區,臺中市神岡區中山路17號1樓,"中醫一般科,",0,0,0,0,0,0,0,2,0,0,0,0,0,0,0,0,0,0,0,0,0,0,0,0,0,0,0,神岡區,24.2486369,120.6986828
3736080017,杏明牙醫診所,04 25622460,臺中市神岡區,臺中市神岡區神岡路２６號,"牙醫一般科,",0,0,0,0,0,0,0,0,1,0,0,0,0,0,0,0,0,0,0,0,0,0,0,0,0,0,0,神岡區,24.2579097,120.6618219
3536081314,林政益小兒科診所,25152765,臺中市神岡區,臺中市神岡區中山路三十三 號,"兒科,",0,0,0,0,0,0,2,0,0,1,1,0,3,0,0,0,0,0,0,0,0,0,0,0,0,0,0,神岡區,24.252859,120.673968
3536081341,劉俊欣耳鼻喉科診所,(04)25633797,臺中市神岡區,臺中市神岡區神岡路88巷12號1樓,"耳鼻喉科,",0,0,0,0,0,0,3,0,0,2,0,2,0,0,0,0,0,0,0,0,0,0,0,0,0,0,0,神岡區,24.2576845,120.6596699
3536080059,祈安聯合診所,04-25625470,臺中市神岡區,臺中市神岡區民生路２７號,"內科,兒科,",0,0,0,0,0,0,3,0,0,0,0,3,1,0,0,1,0,0,0,0,0,0,0,0,0,0,1,神岡區,24.2457595,120.6822898
3536080111,林炳麟診所,04 25610165,臺中市神岡區,臺中市神岡區神岡路２４號,"西醫一般科,",0,0,0,0,0,0,1,0,0,1,0,1,0,0,0,0,0,0,0,0,0,0,0,0,0,0,0,神岡區,24.2579367,120.6618709
3536080193,安德診所,04 25613730,臺中市神岡區,臺中市神岡區中山路７３７號,"西醫一般科,",0,0,0,0,0,0,1,0,0,1,0,0,1,0,0,0,0,0,0,0,0,0,0,0,0,0,0,神岡區,24.2494874,120.6784551
3536080200,陳忠義診所,04 25628672,臺中市神岡區,臺中市神岡區民生路２２號,"西醫一般科,",0,0,0,0,0,0,3,0,0,0,0,0,1,0,0,0,0,0,0,0,0,0,0,0,0,0,0,神岡區,24.2461662,120.6821565
3836080037,資生中醫診所,04-25621315,臺中市神岡區,臺中市神岡區神岡路４６號,"中醫一般科,",0,0,0,0,0,0,0,1,0,0,0,0,0,0,0,0,0,0,0,0,0,0,0,0,0,0,0,神岡區,24.2576823,120.6608683
3703080016,豐洲牙醫診所,04-25284847,臺中市神岡區,臺中市神岡區豐洲路382號1樓,"牙醫一般科,",0,0,0,0,0,0,0,0,1,0,0,0,0,0,0,0,0,0,0,0,0,0,0,0,0,0,0,神岡區,24.2609868,120.7062468
3703080025,君品牙醫診所,04-25227768,臺中市神岡區,臺中市神岡區豐原大道七段615之2、615之3號1樓,"牙醫一般科,",0,0,0,0,0,0,0,0,1,0,0,0,0,0,0,0,0,0,0,0,0,0,0,0,0,0,0,神岡區,24.259889,120.709265
3836081267,禎祥中醫診所,04-25625162,臺中市神岡區,臺中市神岡區民生路27之15號1樓,"中醫一般科,",0,0,0,0,0,0,0,2,0,0,0,0,0,0,0,0,0,0,0,0,0,0,0,0,0,0,0,神岡區,24.2458742,120.6824433
3536080031,祥祐診所,04 20201825,臺中市神岡區,臺中市神岡區五權路６９號,"西醫一般科,",0,0,0,0,0,0,1,0,0,1,0,1,0,0,0,0,0,0,0,0,0,0,0,0,0,0,0,神岡區,24.2577725,120.7119863
3536080273,鄧政宗耳鼻喉科診所,04-25630961,臺中市神岡區,臺中市神岡區中山路四八九號,"耳鼻喉科,",0,0,0,0,0,0,1,0,0,0,0,0,0,0,0,0,0,0,0,0,0,0,0,0,0,0,0,神岡區,24.2499057,120.6817589
3736080197,大業牙醫診所,04 25288800,臺中市神岡區,臺中市神岡區中山路１５號,"牙醫一般科,",0,0,0,0,0,0,0,0,1,0,0,0,0,0,0,0,0,0,0,0,0,0,0,0,0,0,0,神岡區,24.2486681,120.69872
3803080045,瑞恩中醫診所,04-25620280,臺中市神岡區,臺中市神岡區神岡路38號1樓,"中醫一般科,",0,0,0,0,0,0,0,2,0,0,0,1,0,0,0,0,0,0,0,0,0,0,0,0,0,0,0,神岡區,24.2577203,120.6610029
3503080021,文政診所,04-25630193,臺中市神岡區,臺中市神岡區文政街56號1樓及58號1、2樓,"家庭醫學科,",0,0,0,0,0,0,1,0,0,0,0,2,1,0,0,0,0,0,0,0,0,0,0,0,0,0,0,神岡區,24.2487974,120.6815235
3503080012,佑林診所,04-25159896,臺中市神岡區,臺中市神岡區中山路27號1樓,"西醫一般科,",0,0,0,0,0,0,1,0,0,1,0,2,1,0,0,0,0,0,0,0,0,0,0,0,0,0,0,神岡區,24.2486272,120.6984694
3803080054,尚鼎中醫診所,,臺中市神岡區,臺中市神岡區民生路51號1樓,"中醫一般科,",0,0,0,0,0,0,0,3,0,0,0,0,0,0,0,0,0,0,0,0,0,0,0,0,0,0,0,神岡區,24.2449232,120.6810672
2336080018,臺中市神岡區衛生所,04-25622792,臺中市神岡區,臺中市神岡區神岡路２號,"家庭醫學科,",0,0,0,0,0,0,0,0,0,0,0,10,0,0,0,0,0,0,0,0,0,0,0,0,0,0,0,神岡區,24.2579569,120.6629604
3503080030,文福診所,04-25634666,臺中市神岡區,臺中市神岡區文政街58號2樓,"內科,",0,0,0,0,0,0,1,0,0,0,0,6,0,0,0,0,0,0,0,0,0,0,0,0,0,0,0,神岡區,24.2489862,120.6815303
3736081265,元富牙醫診所,04-25255517,臺中市神岡區,臺中市神岡區五權路八十九號,"牙醫一般科,",0,0,0,0,0,0,0,0,4,0,0,0,0,0,0,0,0,0,0,0,0,0,0,0,0,0,0,神岡區,24.2568513,120.7123485
3536080095,李內兒科診所,04 25627097,臺中市神岡區,臺中市神岡區中山路６２８號,"內科,",0,0,0,0,0,0,1,0,0,0,0,0,1,0,0,0,0,0,0,0,0,0,0,0,0,0,0,神岡區,24.2470965,120.6821958
3803080036,維心中醫診所,04-25615556,臺中市神岡區,臺中市神岡區中山路1357號1樓,"中醫一般科,",0,0,0,0,0,0,0,1,0,0,0,0,0,0,0,0,0,0,0,0,0,0,0,0,0,0,0,神岡區,24.2586865,120.6576379
3736080080,西華牙醫診所,04 25285583,臺中市神岡區,臺中市神岡區豐洲路一三七號,"牙醫一般科,",0,0,0,0,0,0,0,0,1,0,0,0,0,0,0,0,0,0,0,0,0,0,0,0,0,0,0,神岡區,24.266252,120.7045449
3836080117,進安中醫診所,04-25618002,臺中市神岡區,臺中市神岡區昌平路五段390號1樓,"中醫一般科,",0,0,0,0,0,0,0,1,0,0,0,0,0,0,0,0,0,0,0,0,0,0,0,0,0,0,0,神岡區,24.2444481,120.6834579
3536080228,李敦錦聯合診所,04 25617382,臺中市神岡區,臺中市神岡區民生路40之2號,"內科,眼科,",0,0,0,0,0,0,2,0,0,2,0,2,0,0,0,0,0,0,0,0,0,0,0,0,0,0,0,神岡區,24.2453911,120.6807032
3836081249,德和堂中醫診所,04-25120069,臺中市神岡區,臺中市神岡區豐洲路３６７號１樓,"中醫一般科,",0,0,0,0,0,0,0,4,0,0,0,0,0,0,0,0,0,0,0,0,0,0,0,0,0,0,0,神岡區,24.2609857,120.7058296
3736081274,陽昇牙醫診所,04-25208686,臺中市神岡區,臺中市神岡區中山路三十五號,"牙醫一般科,",0,0,0,0,0,0,0,0,1,0,0,0,0,0,0,0,0,0,0,0,0,0,0,0,0,0,0,神岡區,24.252859,120.673968
3703080034,盛廣牙醫診所,04-25630868,臺中市神岡區,臺中市神岡區中山路786號1樓、786之1號1樓、788號1樓,"牙醫一般科,",0,0,0,0,0,0,0,0,4,0,0,1,0,0,0,0,0,0,0,0,0,0,0,0,0,0,0,神岡區,24.2489874,120.6794576
3503090125,馨柔診所,04-25358326,臺中市潭子區,臺中市潭子區勝利路303號1樓,"西醫一般科,",0,0,0,0,0,0,2,0,0,2,0,1,0,0,0,0,0,0,0,0,0,0,0,0,0,0,0,潭子區,24.2136953,120.7004589
3503090134,洪大為復健科診所,04-25352886,臺中市潭子區,臺中市潭子區潭興路三段13號1樓、2樓、3樓,"復健科,",5,0,0,0,0,0,1,0,0,0,0,1,0,0,0,0,0,3,4,0,0,3,0,0,0,0,0,潭子區,24.2114402,120.7045746
3503090081,明耀眼科診所,04-25356268,臺中市潭子區,臺中市潭子區勝利路362號1樓、2樓,"眼科,",0,0,0,0,0,1,1,0,0,2,0,1,0,0,0,0,0,0,0,0,0,0,0,0,0,0,0,潭子區,24.2147117,120.7007791
3803090078,張凱智中醫診所,04-25310176,臺中市潭子區,臺中市潭子區勝利路370號1樓,"中醫一般科,",0,0,0,0,0,0,0,1,0,0,0,0,0,0,0,0,0,0,0,0,0,0,0,0,0,0,0,潭子區,24.2149098,120.7007297
3703090067,和顏牙醫診所,04-25317189,臺中市潭子區,臺中市潭子區潭興路3段102號2樓,"牙醫一般科,",0,0,0,0,0,0,0,0,3,0,0,0,0,0,0,0,0,0,0,0,0,0,0,0,0,0,0,潭子區,24.2118334,120.7015874
3503090063,友銘診所,977620325,臺中市潭子區,臺中市潭子區中山路1段159號1樓,"婦產科,",0,0,0,0,0,0,1,0,0,1,0,0,1,0,0,0,0,0,0,0,0,0,0,0,0,0,0,潭子區,24.2365301,120.7099507
3803090050,仲人中醫診所,04-25361038,臺中市潭子區,臺中市潭子區圓通南路6號1樓,"中醫一般科,",0,0,0,0,0,0,0,3,0,0,0,1,0,0,0,0,0,0,0,0,0,0,0,0,0,0,0,潭子區,24.2065135,120.7098086
3503090072,博文耳鼻喉科診所,04-25320707,臺中市潭子區,臺中市潭子區中山路1段99號1樓,"耳鼻喉科,",0,0,0,0,0,0,2,0,0,0,0,1,1,0,0,0,0,0,0,0,0,0,0,0,0,0,0,潭子區,24.2322583,120.7073876
3503090107,淨新診所,04-25333399,臺中市潭子區,臺中市潭子區中山路二段391巷5號1樓、4樓、5樓,"內科,",0,0,0,0,0,0,3,0,0,1,0,16,1,0,0,0,0,0,0,0,0,0,0,0,0,0,1,潭子區,24.2130218,120.704739
3503090090,歐承昌骨科診所,04-25358116,臺中市潭子區,臺中市潭子區潭興路三段135號1樓、2樓、3樓,"骨科,",0,0,0,0,0,0,1,0,0,0,0,0,0,0,0,0,0,3,0,0,0,0,0,0,0,0,0,潭子區,24.211531,120.7010382
3503090143,好晴天身心診所,04-25339907,臺中市潭子區,臺中市潭子區中山路二段374號1、2樓,"精神科,",0,0,0,0,0,0,4,0,0,3,0,4,0,0,0,0,0,0,0,0,0,0,0,0,7,3,0,潭子區,24.2137949,120.7054059
3536091730,賴淵聖小兒科診所,04-25389096,臺中市潭子區,臺中市潭子區福潭路508號1樓,"兒科,",0,0,0,0,0,0,1,0,0,1,0,0,0,0,0,0,0,0,0,0,0,0,0,0,0,0,0,潭子區,24.2099149,120.7104424
3803090032,天晴中醫診所,04-25311868,臺中市潭子區,臺中市潭子區大豐路3段65號1樓,"中醫一般科,",0,0,0,0,0,0,0,2,0,0,0,0,0,0,0,0,0,0,0,0,0,0,0,0,0,0,0,潭子區,24.2210176,120.6920695
3803090069,家德中醫診所,04-25365377,臺中市潭子區,臺中市潭子區福潭路302號1樓左半部（申請面積64.65平方公尺）,"中醫一般科,",0,0,0,0,0,0,0,3,0,0,0,0,0,0,0,0,0,0,0,0,0,0,0,0,0,0,0,潭子區,24.205162,120.709891
3803090167,佑民中醫診所,04-25355655,臺中市潭子區,臺中市潭子區中山路一段76號1樓,"中醫一般科,",0,0,0,0,0,0,0,1,0,0,0,0,0,0,0,0,0,0,0,0,0,0,0,0,0,0,0,潭子區,24.1888223,120.7026574
3703090110,東誠牙醫診所,04-25349222,臺中市潭子區,臺中市潭子區勝利路205號1樓,"牙醫一般科,",0,0,0,0,0,0,0,0,5,0,0,0,0,0,0,0,0,0,0,0,0,0,0,0,0,0,0,潭子區,24.2114076,120.700425
3803090158,頭張昌生中醫診所,04-25340716,臺中市潭子區,臺中市潭子區頭張路二段67號1樓,"中醫一般科,",0,0,0,0,0,0,0,1,0,0,0,0,0,0,0,0,0,0,0,0,0,0,0,0,0,0,0,潭子區,24.1943494,120.6962316
3703090101,牙齒的好朋友牙醫診所,04-25359917,臺中市潭子區,臺中市潭子區中山路一段322號1、2樓,"牙醫一般科,",0,0,0,0,0,0,0,0,3,0,0,0,0,0,0,0,0,0,0,0,0,0,0,0,0,0,0,潭子區,24.1947459,120.7026729
3703090085,小海星牙醫診所,04-25341127,臺中市潭子區,臺中市潭子區興華一路286號5樓,"牙醫一般科,",0,0,0,0,0,0,0,0,4,0,0,0,0,0,0,0,0,0,0,0,0,0,0,0,0,0,0,潭子區,24.2104668,120.7036543
3703090094,崇翔牙醫診所,04-25317882,臺中市潭子區,臺中市潭子區勝利路265號1、2樓,"牙醫一般科,",0,0,0,0,0,0,0,0,2,0,0,0,0,0,0,0,0,0,0,0,0,0,0,0,0,0,0,潭子區,24.212847,120.7004447
3803090096,恒安中醫診所,425321683,臺中市潭子區,臺中市潭子區中山路一段17-8號1樓,"中醫一般科,",0,0,0,0,0,0,0,2,0,0,0,1,0,0,0,0,0,0,0,0,0,0,0,0,0,0,0,潭子區,24.1899274,120.7021964
3836091389,瀚聲中醫診所,04-25353053,臺中市潭子區,臺中市潭子區勝利路１４７號１樓,"中醫一般科,",0,0,0,0,0,0,0,1,0,0,0,0,0,0,0,0,0,0,0,0,0,0,0,0,0,0,0,潭子區,24.2101591,120.7007937
3836091487,惠弘中醫診所,04-25318889,臺中市潭子區,臺中市潭子區中山路一段15巷2號1樓,"中醫一般科,",0,0,0,0,0,0,0,1,0,0,0,1,0,0,0,0,0,0,0,0,0,0,0,0,0,0,0,潭子區,24.1896296,120.7021457
3536090260,林啟忠診所,04-25377563,臺中市潭子區,臺中市潭子區福潭路503號1樓,"內科,",0,0,0,0,0,0,2,0,0,0,0,1,0,0,0,0,0,0,0,0,0,0,0,0,0,0,0,潭子區,24.213904,120.7108366
3736091574,豐禾牙醫診所,425329338,臺中市潭子區,臺中市潭子區潭興路三段67及69號,"牙醫一般科,",0,0,0,0,0,0,0,0,1,0,0,0,0,0,0,0,0,0,0,0,0,0,0,0,0,0,0,潭子區,24.2114911,120.702938
3536090153,游振國小兒科診所,04 25321233,臺中市潭子區,臺中市潭子區雅潭路一段165號,"兒科,",0,0,0,0,0,0,1,0,0,0,0,0,0,0,0,0,0,0,0,0,0,0,0,0,0,0,0,潭子區,24.216054,120.7008695
3536090313,人愛診所,04 25368299,臺中市潭子區,臺中市潭子區潭陽里潭興路二段３９４號,"家庭醫學科,",0,0,0,0,0,0,5,0,0,3,0,2,0,0,0,0,0,0,0,0,0,0,0,0,0,0,0,潭子區,24.2107211,120.7091463
3803090149,聖華中醫診所,04-25322303,臺中市潭子區,臺中市潭子區南門街18號1樓,"中醫一般科,",0,0,0,0,0,0,0,3,0,0,0,1,0,0,0,0,0,0,0,0,0,0,0,0,0,0,0,潭子區,24.2161753,120.7037757
3503090161,丰辰診所,04-25350967,臺中市潭子區,臺中市潭子區潭興路三段110號1樓,"內科,",0,0,0,0,0,0,2,0,0,1,0,4,1,0,0,0,0,0,0,0,0,0,0,0,0,0,0,潭子區,24.2118142,120.7012404
3836091441,鼎善十方中醫診所,04-25337747,臺中市潭子區,臺中市潭子區頭張路二段３６號１樓,"中醫一般科,",0,0,0,0,0,0,0,1,0,0,0,0,0,0,0,0,0,0,0,0,0,0,0,0,0,0,0,潭子區,24.1946884,120.6973799
3703090076,立德牙醫診所,04-25315081,臺中市潭子區,臺中市潭子區興華一路286號1、2、3、4樓,"牙醫一般科,",0,0,0,0,0,0,0,0,11,0,0,0,0,0,0,0,0,0,0,0,0,0,0,0,0,0,0,潭子區,24.2104668,120.7036543
3836091272,聯安中醫診所,04-25332712,臺中市潭子區,臺中市潭子區中山路一段一七九號,"中醫一般科,",0,0,0,0,0,0,0,1,0,0,0,0,0,0,0,0,0,0,0,0,0,0,0,0,0,0,0,潭子區,24.1936963,120.7019061
3536090019,劉文彬內科小兒科診,04 25323336,臺中市潭子區,臺中市潭子區潭子街三段一二二號,"內科,兒科,",0,0,0,0,0,0,1,0,0,0,0,0,0,0,0,0,0,0,0,0,0,0,0,0,0,0,0,潭子區,24.2148941,120.7065006
3736091547,新喜悅牙醫診所,04-25382468,臺中市潭子區,臺中市潭子區福潭路932號1樓,"牙醫一般科,",0,0,0,0,0,0,0,0,1,0,0,0,0,0,0,0,0,0,0,0,0,0,0,0,0,0,0,潭子區,24.2155956,120.7065315
3836091423,吉安堂中醫診所,04-25341769,臺中市潭子區,臺中市潭子區中山路一段２９８之１８號,"中醫一般科,",0,0,0,0,0,0,0,1,0,0,0,0,0,0,0,0,0,0,0,0,0,0,0,0,0,0,0,潭子區,24.194266,120.7026635
3536090206,林田診所,04-25380218,臺中市潭子區,臺中市潭子區合作街53號1樓,"家庭醫學科,內科,",0,0,0,0,0,0,1,0,0,1,0,0,0,0,0,0,0,0,0,0,0,0,0,0,0,0,0,潭子區,24.2038309,120.70859
3803090121,興華中醫診所,04-25341491,臺中市潭子區,臺中市潭子區興華二路6號2樓,"中醫一般科,",0,0,0,0,0,0,0,2,0,0,0,0,0,0,0,0,0,0,0,0,0,0,0,0,0,0,0,潭子區,24.2100804,120.7043448
3503090198,媄樂蒂診所,04-25352819,臺中市潭子區,臺中市潭子區大新路161、163號1樓,"西醫一般科,",0,0,0,0,0,0,1,0,0,0,0,1,0,0,0,0,0,0,0,0,0,0,0,0,0,0,0,潭子區,24.2023249,120.7043993
3736091430,健宏牙醫診所,45322594,臺中市潭子區,臺中市潭子區中山路一段171號,"牙醫一般科,",0,0,0,0,0,0,0,0,1,0,0,0,0,0,0,0,0,0,0,0,0,0,0,0,0,0,0,潭子區,24.1951122,120.7022357
3703090058,名遠牙醫診所,04-25329191,臺中市潭子區,臺中市潭子區興華一路212號1樓,"牙醫一般科,",0,0,0,0,0,0,0,0,2,0,0,0,0,0,0,0,0,0,0,0,0,0,0,0,0,0,0,潭子區,24.2081155,120.7033871
3836091290,乙仁中醫診所,04-25356385,臺中市潭子區,臺中市潭子區頭張路一段四十三號,"中醫一般科,",0,0,0,0,0,0,0,2,0,0,0,0,0,0,0,0,0,0,0,0,0,0,0,0,0,0,0,潭子區,24.1936963,120.7019061
3536091570,安安診所,04-25355526,臺中市潭子區,臺中市潭子區中山路二段383號,"婦產科,",0,0,0,0,0,0,1,0,0,0,0,2,0,0,0,0,0,0,0,0,0,0,0,0,0,0,0,潭子區,24.2130565,120.7051113
3736090095,潭子聯合牙醫診所,04-25339039,臺中市潭子區,臺中市潭子區中山路一段四十三之二號,"牙醫一般科,",0,0,0,0,0,0,0,0,1,0,0,0,0,0,0,0,0,0,0,0,0,0,0,0,0,0,0,潭子區,24.1936963,120.7019061
3736091458,育全牙醫診所,04 25314903,臺中市潭子區,臺中市潭子區興華一路499號1樓,"牙醫一般科,",0,0,0,0,0,0,0,0,1,0,0,0,0,0,0,0,0,0,0,0,0,0,0,0,0,0,0,潭子區,24.2140348,120.7014684
