機構代碼,機構名稱,電話,縣市區名,地址,科別,1語言治療師,2牙體技術師,3聽力師,4牙體技術士,5驗光師,6驗光生,A醫師,B中醫師,C牙醫師,D藥師,E藥劑生,F護理師,G護士,H助產士,I助產師,J醫事檢驗師,K醫事檢驗生,Q物理治療師,R職能治療師,S醫事放射師,T醫事放射士,U物理治療生,W職能治療生,V呼吸治療師,X諮商心理師,Y臨床心理師,Z營養師,區名,緯度,經度
3542014187,黃鼎文骨科診所,7026939,高雄市鳳山區,高雄市鳳山區中山東路138號1-3樓,"外科,骨科,",0,0,0,0,0,0,1,0,0,2,0,5,0,0,0,0,0,2,0,0,0,2,0,0,0,0,0,鳳山區,22.6254228,120.3743487
3542012101,中崙診所,07 7533427,高雄市鳳山區,高雄市鳳山區中崙四路２６號,"西醫一般科,",0,0,0,0,0,0,1,0,0,1,0,1,1,0,0,0,0,0,0,0,0,0,0,0,0,0,0,鳳山區,22.5997248,120.3511037
3507011004,董石城診所,07-7407636,高雄市鳳山區,高雄市鳳山區文龍東路353號1樓,"內科,",0,0,0,0,0,0,1,0,0,0,0,4,0,0,0,0,0,0,0,0,0,0,0,0,0,0,1,鳳山區,22.6404181,120.3651125
3507010169,詹文祥耳鼻喉科診所,07-7425003,高雄市鳳山區,高雄市鳳山區曹公路14號1樓,"耳鼻喉科,",0,0,0,0,0,0,2,0,0,2,0,0,1,0,0,0,0,0,0,0,0,0,0,0,0,0,0,鳳山區,22.628497,120.3573558
3742010245,啟仁牙醫診所,07 7464282,高雄市鳳山區,高雄市鳳山區三民路１７２號,"牙醫一般科,",0,0,0,0,0,0,0,0,1,0,0,0,0,0,0,0,0,0,0,0,0,0,0,0,0,0,0,鳳山區,22.6236019,120.3602684
3542011631,王清敏皮膚科診所,07 7190474,高雄市鳳山區,高雄市鳳山區文衡路４６號,"皮膚科,",0,0,0,0,0,0,1,0,0,2,1,0,1,0,0,0,0,0,0,0,0,0,0,0,0,0,0,鳳山區,22.633167,120.35811
3542012049,德恩診所,07 7194722,高雄市鳳山區,高雄市鳳山區王生明路133號,"外科,",0,0,0,0,0,0,1,0,0,0,0,0,1,0,0,0,0,0,0,0,0,0,0,0,0,0,0,鳳山區,22.6198896,120.3626632
3542011686,林基碧診所,07-7464219,高雄市鳳山區,高雄市鳳山區五甲一路１０１號,"家庭醫學科,",0,0,0,0,0,0,1,0,0,1,0,0,0,0,0,0,0,0,0,0,0,0,0,0,0,0,0,鳳山區,22.6203612,120.3567279
3507011255,惠禾診所,07-7191180,高雄市鳳山區,高雄市鳳山區博愛路173號1樓,"兒科,",0,0,0,0,0,0,1,0,0,1,0,2,0,0,0,0,0,0,0,0,0,0,0,0,0,0,0,鳳山區,22.62836,120.3709134
3507011193,柏雅診所,07-7465832,高雄市鳳山區,高雄市鳳山區青年路二段30號1-2樓,"內科,兒科,",0,0,0,0,0,0,2,0,0,0,2,2,0,0,0,0,0,0,0,0,0,0,0,0,0,0,0,鳳山區,22.6286171,120.3493888
3507010981,五甲天民泌尿科診所,07-7211920,高雄市鳳山區,高雄市鳳山區善美里保泰路296號1、2樓,"泌尿科,",0,0,0,0,0,0,3,0,0,0,2,3,0,0,0,0,0,0,0,0,0,0,0,0,0,0,0,鳳山區,22.601973,120.3334272
3507011022,樺樹診所,07-7192598,高雄市鳳山區,高雄市鳳山區五甲一路192巷4號1樓,"家庭醫學科,內科,",0,0,0,0,0,0,1,0,0,0,0,1,0,0,0,0,0,0,0,0,0,0,0,0,0,0,0,鳳山區,22.6191451,120.3551837
3807010576,易鴻中醫診所,07-7657055,高雄市鳳山區,高雄市鳳山區老爺里五甲一路692之1號1樓,"中醫一般科,",0,0,0,0,0,0,0,1,0,0,0,0,0,0,0,0,0,0,0,0,0,0,0,0,0,0,0,鳳山區,22.6087597,120.3478244
3507010954,楊誠恕診所,07-7016090,高雄市鳳山區,高雄市鳳山區工協街47號1樓,"家庭醫學科,內科,",0,0,0,0,0,0,1,0,0,1,0,2,0,0,0,0,0,0,0,0,0,0,0,0,0,0,0,鳳山區,22.6298367,120.3717791
3507010945,青年診所,07-7103318,高雄市鳳山區,高雄市鳳山區青年路二段168號1-2樓,"內科,",0,0,0,0,0,0,1,0,0,0,0,0,0,0,0,0,0,0,0,0,0,0,0,0,0,0,0,鳳山區,22.6364819,120.3505621
3507011111,家歡復健專科診所,7190579,高雄市鳳山區,高雄市鳳山區中山路74號1.2樓,"復健科,",0,0,0,0,0,0,2,0,0,0,0,1,0,0,0,0,0,9,3,0,0,0,0,0,0,0,0,鳳山區,22.6220607,120.3594004
3707010270,小熊自費牙醫診所,07-7777353,高雄市鳳山區,高雄市鳳山區文平街168號2樓,"牙醫一般科,",0,0,0,0,0,0,0,0,1,0,0,0,0,0,0,0,0,0,0,0,0,0,0,0,0,0,0,鳳山區,22.641377,120.3507232
3807010183,柏瑞中醫診所,7133838,高雄市鳳山區,高雄市鳳山區鎮南里龍成路220號1樓,"中醫一般科,",0,0,0,0,0,0,0,1,0,0,0,1,0,0,0,0,0,0,0,0,0,0,0,0,0,0,0,鳳山區,22.5987593,120.3302598
3807010290,許仁豪中醫診所,07-7806122,高雄市鳳山區,高雄市鳳山區建國路二段202號1樓,"中醫一般科,",0,0,0,0,0,0,0,3,0,0,0,0,0,0,0,0,0,0,0,0,0,0,0,0,0,0,0,鳳山區,22.6363132,120.3585908
3507010972,歐俊彥小兒科診所,07-7777900,高雄市鳳山區,高雄市鳳山區文鳳路20號1-2樓,"兒科,",0,0,0,0,0,0,1,0,0,2,0,2,1,0,0,0,0,0,0,0,0,0,0,0,0,0,0,鳳山區,22.642314,120.350363
3742010807,惠群牙醫診所1,07 7231834,高雄市鳳山區,高雄市鳳山區新富路250號1-2樓,"牙醫一般科,",0,0,0,0,0,0,0,0,1,0,0,0,0,0,0,0,0,0,0,0,0,0,0,0,0,0,0,鳳山區,22.6126532,120.3407051
3842012269,儒慧中醫診所,07-7997779,高雄市鳳山區,高雄市鳳山區樂園街112號1樓,"中醫一般科,",0,0,0,0,0,0,0,2,0,0,0,0,0,0,0,0,0,0,0,0,0,0,0,0,0,0,0,鳳山區,22.621375,120.3566796
3542010018,中山耳鼻喉科診所,07-7462424,高雄市鳳山區,高雄市鳳山區中正路５１號,"耳鼻喉科,",0,0,0,0,0,0,1,0,0,0,1,0,0,0,0,0,0,0,0,0,0,0,0,0,0,0,0,鳳山區,22.625519,120.3593969
3542011908,潘內科診所,07 7190120,高雄市鳳山區,高雄市鳳山區文龍路16巷28號,"內科,",0,0,0,0,0,0,1,0,0,0,1,1,1,0,0,0,0,0,0,0,0,0,0,0,0,0,0,鳳山區,22.6441724,120.3501317
3542012290,柯適中皮膚科診所,07 8133167,高雄市鳳山區,高雄市鳳山區五甲二路679號,"皮膚科,",0,0,0,0,0,0,4,0,0,3,0,3,2,0,0,0,0,0,0,0,0,0,0,0,0,0,0,鳳山區,22.5938403,120.32927
3707010350,典叡牙醫診所,07-7962033,高雄市鳳山區,高雄市鳳山區南成里和成路417號1、2、3樓,"牙醫一般科,",0,0,0,0,0,0,0,0,7,0,0,2,0,0,0,0,0,0,0,0,0,0,0,0,0,0,0,鳳山區,22.5926677,120.341157
3542011506,韓台基診所,07 7262527,高雄市鳳山區,高雄市鳳山區新富路３３３號,"家庭醫學科,",0,0,0,0,0,0,1,0,0,0,0,2,1,0,0,0,0,0,0,0,0,0,0,0,0,0,0,鳳山區,22.6131904,120.3447024
3742011019,佑千牙醫診所,07 8319099,高雄市鳳山區,高雄市鳳山區忠誠路137號1樓,"牙醫一般科,",0,0,0,0,0,0,0,0,1,0,0,0,0,0,0,0,0,0,0,0,0,0,0,0,0,0,0,鳳山區,22.5959426,120.3255553
3742010763,首博牙醫診所,07 7478271,高雄市鳳山區,高雄市鳳山區經武路１８之３號,"牙醫一般科,",0,0,0,0,0,0,0,0,1,0,0,0,0,0,0,0,0,0,0,0,0,0,0,0,0,0,0,鳳山區,22.6262203,120.3622196
3507010016,文山醫世代眼科診所,07-7670088,高雄市鳳山區,高雄市鳳山區文鳳路7號地上1-2樓,"眼科,",0,0,0,0,0,0,1,0,0,1,0,0,1,0,0,0,0,0,0,0,0,0,0,0,0,0,0,鳳山區,22.6419845,120.3509281
3542012030,大和診所,07-7767239,高雄市鳳山區,高雄市鳳山區文衡路202號1-2樓,"復健科,",0,0,0,0,0,0,1,0,0,1,0,0,1,0,0,0,0,1,0,0,0,1,0,0,0,0,0,鳳山區,22.6374048,120.3566767
3507010794,誠愛診所,07-7556008,高雄市鳳山區,高雄市鳳山區誠義里誠愛路1號1樓,"婦產科,",0,0,0,0,0,0,1,0,0,1,0,2,0,0,0,0,0,0,0,0,0,0,0,0,0,0,0,鳳山區,22.6098007,120.3590238
2342010013,高雄市鳳山區衛生所,07-7430437,高雄市鳳山區,高雄市鳳山區經武路34巷2號,,0,0,0,0,0,0,0,0,0,0,0,11,1,0,0,0,0,0,0,0,0,0,0,0,0,0,0,鳳山區,22.6272379,120.3629427
3842010649,永安中醫診所,07 7637338,高雄市鳳山區,高雄市鳳山區國富路３０號,"中醫一般科,",0,0,0,0,0,0,0,1,0,0,0,0,0,0,0,0,0,0,0,0,0,0,0,0,0,0,0,鳳山區,22.6156887,120.3498525
3542011882,陳茂展診所,07-7107302,高雄市鳳山區,高雄市鳳山區鳳松路61號1-3樓,"外科,",0,0,0,0,0,0,1,0,0,1,0,3,1,0,0,0,0,0,0,0,0,0,0,0,0,0,0,鳳山區,22.6346354,120.361626
3807010085,大統中醫診所,07-7191386,高雄市鳳山區,高雄市鳳山區光華路24號1樓,"中醫一般科,",0,0,0,0,0,0,0,1,0,0,0,0,1,0,0,0,0,0,0,0,0,0,0,0,0,0,0,鳳山區,22.6199795,120.3553285
3507011228,聯欣診所,07-7926930,高雄市鳳山區,高雄市鳳山區過埤里高鳳一路91號1樓,"家庭醫學科,",0,0,0,0,0,0,1,0,0,0,0,2,1,0,0,0,0,0,0,0,0,0,0,0,0,0,0,鳳山區,22.5881297,120.3666612
3507010678,聖壹診所,07-7014755,高雄市鳳山區,高雄市鳳山區瑞興路482號1樓,"內科,兒科,",0,0,0,0,0,0,5,0,0,0,0,5,0,0,0,0,0,0,0,0,0,0,0,0,0,0,0,鳳山區,22.6308987,120.3717651
3507010543,高銘骨外科診所,07-7101555,高雄市鳳山區,高雄市鳳山區中山西路262號1樓,"外科,骨科,",0,0,0,0,0,0,2,0,0,0,1,3,1,0,0,0,0,5,0,0,0,1,0,0,0,0,0,鳳山區,22.6282924,120.3452302
3842012170,祥元中醫診所,7660228,高雄市鳳山區,高雄市鳳山區南京路324巷4號1樓,"中醫一般科,",0,0,0,0,0,0,0,1,0,0,0,0,0,0,0,0,0,0,0,0,0,0,0,0,0,0,0,鳳山區,22.616015,120.3460036
3507010383,泰元復健科診所,07-7539909,高雄市鳳山區,高雄市鳳山區中崙路543號1樓,"復健科,",0,0,0,0,0,0,1,0,0,0,0,0,0,0,0,0,0,4,2,0,0,1,0,0,0,0,0,鳳山區,22.6023527,120.3514102
3507011200,橙田診所,077330038,高雄市鳳山區,高雄市鳳山區文龍東路48號1樓,"家庭醫學科,耳鼻喉科,",0,0,0,0,0,0,2,0,0,2,0,2,2,0,0,0,0,0,0,0,0,0,0,0,0,0,0,鳳山區,22.6414741,120.3742238
3507010632,聖恩診所,07-7219819,高雄市鳳山區,高雄市鳳山區五甲二路395號、397號1樓,"家庭醫學科,",0,0,0,0,0,0,4,0,0,2,0,1,1,0,0,0,0,0,0,0,0,0,0,0,0,0,0,鳳山區,22.5977226,120.3354296
3807010736,芢莘中醫診所,07-7190635,高雄市鳳山區,高雄市鳳山區青年路一段334號1-2樓,"中醫一般科,",0,0,0,0,0,0,0,2,0,0,0,2,0,0,0,0,0,0,0,0,0,0,0,0,0,0,0,鳳山區,22.6268122,120.349352
3542014605,大學眼科診所,07-7478471,高雄市鳳山區,高雄市鳳山區維新路130號1、2樓,"眼科,",0,0,0,0,1,3,3,0,0,1,1,12,0,0,0,0,0,0,0,0,0,0,0,0,0,0,0,鳳山區,22.6250225,120.3616136
3742010398,陽明牙醫診所,07 7468146,高雄市鳳山區,高雄市鳳山區經武路27號,"牙醫一般科,",0,0,0,0,0,0,0,0,1,0,0,0,0,0,0,0,0,0,0,0,0,0,0,0,0,0,0,鳳山區,22.626636,120.3619738
3542013582,宏庚診所,7109911,高雄市鳳山區,高雄市鳳山區鳳松路17號,"內科,骨科,",0,0,0,0,0,0,2,0,0,1,0,2,1,0,0,0,0,1,0,0,0,1,0,0,0,0,0,鳳山區,22.6325151,120.3609377
3742011091,雙宏牙醫診所,07 7666158,高雄市鳳山區,高雄市鳳山區新富路222號,"牙醫一般科,",0,0,0,0,0,0,0,0,1,0,0,0,0,0,0,0,0,0,0,0,0,0,0,0,0,0,0,鳳山區,22.6125692,120.339989
3807010450,鳳山大健康中醫診所,07-7030899,高雄市鳳山區,高雄市鳳山區鳳東路219號1樓,"中醫一般科,",0,0,0,0,0,0,0,2,0,0,0,1,0,0,0,0,0,0,0,0,0,0,0,0,0,0,0,鳳山區,22.6250607,120.3770171
3742010496,潔恩牙醫診所,07-7439382,高雄市鳳山區,高雄市鳳山區光遠路２４２號,"牙醫一般科,",0,0,0,0,0,0,0,0,1,0,0,0,0,0,0,0,0,0,0,0,0,0,0,0,0,0,0,鳳山區,22.625501,120.362661
3842012303,大愛中醫診所,8112212,高雄市鳳山區,高雄市鳳山區自強二路186號1樓,"中醫一般科,",0,0,0,0,0,0,0,3,0,0,0,0,2,0,0,0,0,0,0,0,0,0,0,0,0,0,0,鳳山區,22.5972972,120.3270743
3742010174,豐順牙醫診所,07 7462381,高雄市鳳山區,高雄市鳳山區中山路８５號,"牙醫一般科,",0,0,0,0,0,0,0,0,1,0,0,0,0,0,0,0,0,0,0,0,0,0,0,0,0,0,0,鳳山區,22.621498,120.3598597
3742010576,瑞祺牙醫診所,07 7435148,高雄市鳳山區,高雄市鳳山區瑞竹路2１號,"牙醫一般科,",0,0,0,0,0,0,0,0,1,0,0,0,0,0,0,0,0,0,0,0,0,0,0,0,0,0,0,鳳山區,22.6251124,120.3661765
3542011864,何鴻鈞診所,07 7716819,高雄市鳳山區,高雄市鳳山區林森路３２４號,"西醫一般科,",0,0,0,0,0,0,1,0,0,1,0,2,0,0,0,0,0,0,0,0,0,0,0,0,0,0,0,鳳山區,22.5968325,120.3380079
3742012605,詠和牙醫診所,7671101,高雄市鳳山區,高雄市鳳山區新樂里海洋一路120號1樓,"牙醫一般科,",0,0,0,0,0,0,0,0,1,0,0,0,0,0,0,0,0,0,0,0,0,0,0,0,0,0,0,鳳山區,22.6098278,120.3448877
3807010594,明峰中醫診所,07-7195638,高雄市鳳山區,高雄市鳳山區北賢街15號1樓,"中醫一般科,",0,0,0,0,0,0,0,1,0,0,0,3,0,0,0,0,0,0,0,0,0,0,0,0,0,0,0,鳳山區,22.6390477,120.3687265
3507010847,鳳山高美泌尿科診所,07-7991255,高雄市鳳山區,高雄市鳳山區光復路二段255號1-2樓,"泌尿科,",0,0,0,0,0,0,1,0,0,1,0,2,0,0,0,0,0,0,0,0,0,0,0,0,0,0,0,鳳山區,22.6293469,120.3430074
1507010023,澄清國際眼科醫院,7156325,高雄市鳳山區,高雄市鳳山區五甲二路398號,"神經科,眼科,",0,0,0,0,2,2,7,0,0,4,0,15,1,0,0,0,0,0,0,0,0,0,0,0,0,0,0,鳳山區,22.5986051,120.3362657
3542011417,信宜診所,07 7170357,高雄市鳳山區,高雄市鳳山區新富路５１８號,"神經科,",0,0,0,0,0,0,1,0,0,1,0,1,0,0,0,0,0,0,0,0,0,0,0,0,0,0,0,鳳山區,22.6141297,120.3474841
3742010183,林牙醫診所,07 7414045,高雄市鳳山區,高雄市鳳山區光復路２５３號,"牙醫一般科,",0,0,0,0,0,0,0,0,1,0,0,0,0,0,0,0,0,0,0,0,0,0,0,0,0,0,0,鳳山區,22.6289892,120.354419
3542014463,佳醫診所,07-7219191,高雄市鳳山區,高雄市鳳山區五甲二路357號1-2樓,"內科,",0,0,0,0,0,0,2,0,0,0,0,8,3,0,0,0,0,0,0,0,0,0,0,0,0,0,0,鳳山區,22.5980414,120.3362626
3742010503,高登牙醫診所,07 7461159,高雄市鳳山區,高雄市鳳山區中山西路２２１號,"牙醫一般科,",0,0,0,0,0,0,0,0,1,0,0,0,0,0,0,0,0,0,0,0,0,0,0,0,0,0,0,鳳山區,22.6276981,120.3486032
3542014785,新石津診所,07-7682288,高雄市鳳山區,高雄市鳳山區自強二路112號,"西醫一般科,",0,0,0,0,0,0,2,0,0,1,0,3,0,0,0,0,0,0,0,0,0,0,0,0,0,0,0,鳳山區,22.5959027,120.3276162
3542013662,余成桓聯合診所,07-7761471,高雄市鳳山區,高雄市鳳山區建國路二段128、130號,"西醫一般科,",0,0,0,0,0,0,2,0,0,0,1,0,0,0,0,0,0,0,0,0,0,0,0,0,0,0,0,鳳山區,22.635986,120.360437
3507010865,鳳山上明眼科診所,07-7192719,高雄市鳳山區,高雄市鳳山區仁愛路52號1-2樓,"眼科,",0,0,0,0,0,0,1,0,0,3,0,2,0,0,0,0,0,0,0,0,0,0,0,0,0,0,0,鳳山區,22.6244017,120.3727191
3742012427,康軒家庭牙醫診所,7218515,高雄市鳳山區,高雄市鳳山區南正二路190號,"牙醫一般科,",0,0,0,0,0,0,0,0,1,0,0,0,0,0,0,0,0,0,0,0,0,0,0,0,0,0,0,鳳山區,22.6002347,120.3302739
3542010698,林景星小兒科診所,07-7464369,高雄市鳳山區,高雄市鳳山區中正路131號,"兒科,",0,0,0,0,0,0,1,0,0,0,0,0,0,0,0,0,0,0,0,0,0,0,0,0,0,0,0,鳳山區,22.6273522,120.3600572
3507010025,大欣診所,07-7993009,高雄市鳳山區,高雄市鳳山區文衡路37號1樓,"西醫一般科,",0,0,0,0,0,0,2,0,0,0,0,4,1,0,0,0,0,0,0,0,0,0,0,0,0,0,0,鳳山區,22.6335666,120.3577194
3542015031,雅皮膚科診所,07-7677775,高雄市鳳山區,高雄市鳳山區文龍路23號1-2樓,"皮膚科,",0,0,0,0,0,0,3,0,0,0,0,2,0,0,0,0,0,0,0,0,0,0,0,0,0,0,0,鳳山區,22.6432971,120.3500797
3742012490,和進牙醫診所,7682112,高雄市鳳山區,高雄市鳳山區自強一路216號,"牙醫一般科,",0,0,0,0,0,0,0,0,2,0,0,0,0,0,0,0,0,0,0,0,0,0,0,0,0,0,0,鳳山區,22.5928744,120.3286841
3742012230,鳳屏牙醫診所,(07)7997013,高雄市鳳山區,高雄市鳳山區青年路一段379號,"牙醫一般科,",0,0,0,0,0,0,0,0,1,0,0,0,0,0,0,0,0,0,0,0,0,0,0,0,0,0,0,鳳山區,22.627383,120.3490179
3542014445,聖光診所,07-7462671,高雄市鳳山區,高雄市鳳山區中山東路159號1-2樓,"家庭醫學科,內科,",0,0,0,0,0,0,2,0,0,1,0,9,0,0,0,0,0,0,0,0,0,0,0,0,0,0,0,鳳山區,22.6234681,120.3682761
3507010098,仁恩診所,07-8133897,高雄市鳳山區,高雄市鳳山區五甲三路79號一樓,"兒科,耳鼻喉科,",0,0,0,0,0,0,2,0,0,1,1,0,3,0,0,0,0,0,0,0,0,0,0,0,0,0,0,鳳山區,22.5919077,120.3266099
3507010338,維格診所,07-8318811,高雄市鳳山區,高雄市鳳山區五甲二路501號1~3樓,"西醫一般科,",0,0,0,0,0,0,1,0,0,1,0,2,0,0,0,0,0,0,0,0,0,0,0,0,0,0,0,鳳山區,22.5961649,120.3331035
3707010092,宇誠牙醫診所,07-7405588,高雄市鳳山區,高雄市鳳山區自由路16-1號1、2樓,"牙醫一般科,",0,0,0,0,0,0,0,0,2,0,0,0,0,0,0,0,0,0,0,0,0,0,0,0,0,0,0,鳳山區,22.6261095,120.3544389
3507010356,楊浪平骨科診所,,高雄市鳳山區,高雄市鳳山區新富路602號1樓,"骨科,",0,0,0,0,0,0,1,0,0,0,0,2,1,0,0,0,0,1,0,0,0,2,0,0,0,0,0,鳳山區,22.6161197,120.3490421
3707010109,德霖牙醫診所,,高雄市鳳山區,高雄市鳳山區五福一路8號1樓,"牙醫一般科,",0,0,0,0,0,0,0,0,5,0,0,0,0,0,0,0,0,0,0,0,0,0,0,0,0,0,0,鳳山區,22.5918029,120.3268691
3707010145,五甲大和牙醫診所,7686677,高雄市鳳山區,高雄市鳳山區五甲二路99號2樓,"牙醫一般科,",0,0,0,0,0,0,0,0,3,0,0,0,0,0,0,0,0,0,0,0,0,0,0,0,0,0,0,鳳山區,22.60196,120.341514
3807010263,鳳山大同中醫診所,07-7472215,高雄市鳳山區,高雄市鳳山區光復路一段109號1樓及111號1樓,"中醫一般科,",0,0,0,0,0,0,0,3,0,0,0,1,2,0,0,0,0,0,0,0,0,0,0,0,0,0,0,鳳山區,22.6290538,120.3515699
3807010174,元貞中醫診所,7536109,高雄市鳳山區,高雄市鳳山區中崙五路14號1樓,"中醫一般科,",0,0,0,0,0,0,0,1,0,0,0,0,0,0,0,0,0,0,0,0,0,0,0,0,0,0,0,鳳山區,22.5974012,120.3520191
3707010163,強森牙醫診所,07-7778848,高雄市鳳山區,高雄市鳳山區建國路三段390號1-2樓,"牙醫一般科,",0,0,0,0,0,0,0,0,3,0,0,0,0,0,0,0,0,0,0,0,0,0,0,0,0,0,0,鳳山區,22.638014,120.347811
3507010454,文山長慶小兒科診所,07-7774098,高雄市鳳山區,高雄市鳳山區文龍東路738號1樓,"兒科,",0,0,0,0,0,0,3,0,0,2,1,0,1,0,0,0,0,0,0,0,0,0,0,0,0,0,0,鳳山區,22.6427615,120.3539908
3807010610,楊惠如中醫診所,07-7407279,高雄市鳳山區,高雄市鳳山區曹公路32號1-2樓,"中醫一般科,",0,0,0,0,0,0,0,1,0,0,0,1,0,0,0,0,0,0,0,0,0,0,0,0,0,0,0,鳳山區,22.6298472,120.3573673
3707010341,誠心牙醫診所,07-7822038,高雄市鳳山區,高雄市鳳山區鳳林路258號1-2樓,"牙醫一般科,",0,0,0,0,0,0,0,0,3,0,0,0,0,0,0,0,0,0,0,0,0,0,0,0,0,0,0,鳳山區,22.6221251,120.3769641
3807010674,浩瀚中醫診所,07-7106161,高雄市鳳山區,高雄市鳳山區中山東路86-6號1樓,"中醫一般科,",0,0,0,0,0,0,0,1,0,0,0,0,0,0,0,0,0,0,0,0,0,0,0,0,0,0,0,鳳山區,22.624513,120.372161
3507011059,新富診所,,高雄市鳳山區,高雄市鳳山區鎮南里五甲二路716號1樓,"家庭醫學科,",0,0,0,0,0,0,1,0,0,0,1,1,1,0,0,0,0,0,0,0,0,0,0,0,0,0,0,鳳山區,22.5944667,120.3296246
3707010332,景泰牙醫診所,07-7260808,高雄市鳳山區,高雄市鳳山區善美里保泰路400號1.2樓,"牙醫一般科,",0,0,0,0,0,0,0,0,1,0,0,1,0,0,0,0,0,0,0,0,0,0,0,0,0,0,0,鳳山區,22.6037387,120.3359066
3507011102,達特楊美學診所,,高雄市鳳山區,高雄市鳳山區一甲里五甲二路368號1樓、370號1-2樓,"西醫一般科,",0,0,0,0,0,0,1,0,0,1,0,3,1,0,0,0,0,0,0,0,0,0,0,0,0,0,0,鳳山區,22.5989735,120.3369048
3507011077,上承診所,07-7102666,高雄市鳳山區,高雄市鳳山區光復路一段48號1樓,"家庭醫學科,",0,0,0,0,0,0,2,0,0,2,0,2,1,0,0,0,0,0,0,0,0,0,0,0,0,0,0,鳳山區,22.6292393,120.352865
3507011031,福誠耳鼻喉科診所,07-8125257,高雄市鳳山區,高雄市鳳山區五福里五甲三路205號1樓,"耳鼻喉科,",0,0,0,0,0,0,2,0,0,3,0,2,1,0,0,0,0,0,0,0,0,0,0,0,0,0,0,鳳山區,22.5901587,120.3246043
3807010656,鳳城中醫診所,07-7030033,高雄市鳳山區,高雄市鳳山區勝利路53號1樓及55號1樓,"中醫一般科,",0,0,0,0,0,0,0,3,0,0,0,1,0,0,0,0,0,0,0,0,0,0,0,0,0,0,0,鳳山區,22.6285112,120.3731202
3507011120,美妍醫美診所,7905388,高雄市鳳山區,高雄市鳳山區青年路二段146-3號1樓,"西醫一般科,",0,0,0,0,0,0,1,0,0,0,0,2,1,0,0,0,0,0,0,0,0,0,0,0,0,0,0,鳳山區,22.6351938,120.3503696
3807010441,黃紹源中醫診所,07-7965567,高雄市鳳山區,高雄市鳳山區南和一路1號1-2樓,"中醫一般科,",0,0,0,0,0,0,0,1,0,0,0,0,0,0,0,0,0,0,0,0,0,0,0,0,0,0,0,鳳山區,22.5916911,120.3369519
3807010478,湞宸中醫診所,7223711,高雄市鳳山區,高雄市鳳山區瑞隆東路256號1樓,"中醫一般科,",0,0,0,0,0,0,0,2,0,0,0,0,0,0,0,0,0,0,0,0,0,0,0,0,0,0,0,鳳山區,22.6062892,120.3393874
3507010874,建國達特楊診所,07-7778333,高雄市鳳山區,高雄市鳳山區建國路三段299號1-2樓,"眼科,",0,0,0,0,1,0,1,0,0,2,0,2,1,0,0,0,0,0,0,0,0,0,0,0,0,0,0,鳳山區,22.6373801,120.3503423
3707010234,百世專業牙醫診所,07-7351316,高雄市鳳山區,高雄市鳳山區文龍東路296號1-2樓,"牙醫一般科,",0,0,0,0,0,0,0,0,3,0,0,1,0,0,0,0,0,0,0,0,0,0,0,0,0,0,0,鳳山區,22.6407564,120.3663811
3807010469,新恩中醫診所,07-8115688,高雄市鳳山區,高雄市鳳山區鎮南街70號1樓,"中醫一般科,",0,0,0,0,0,0,0,1,0,0,0,0,0,0,0,0,0,0,0,0,0,0,0,0,0,0,0,鳳山區,22.5963078,120.3295397
3807010512,心保泰中醫診所,7686988,高雄市鳳山區,高雄市鳳山區保泰路148號、150號1樓,"中醫一般科,",0,0,0,0,0,0,0,1,0,0,0,0,0,0,0,0,0,0,0,0,0,0,0,0,0,0,0,鳳山區,22.600341,120.330211
3507010838,鳳山李嘉文泌尿科診所,7659229,高雄市鳳山區,高雄市鳳山區新富路266號1、2樓,"泌尿科,",0,0,0,0,0,0,3,0,0,2,0,7,0,0,0,0,0,0,0,0,0,0,0,0,0,0,0,鳳山區,22.6124164,120.3410409
3507011013,蘇泰豊兒科診所,0988038897 07-7922829,高雄市鳳山區,高雄市鳳山區過埤里過勇路268號1.2樓,"兒科,",0,0,0,0,0,0,1,0,0,0,0,0,0,0,0,0,0,0,0,0,0,0,0,0,0,0,0,鳳山區,22.5913993,120.362964
3507010883,賴其盈小兒科診所,07-7107998,高雄市鳳山區,高雄市鳳山區自由路136-1號1樓,"兒科,",0,0,0,0,0,0,2,0,0,2,0,2,1,0,0,0,0,0,0,0,0,0,0,0,0,0,0,鳳山區,22.6257782,120.3504193
3507010936,五甲美膚診所,0928110813,高雄市鳳山區,高雄市鳳山區龍成路11號,"西醫一般科,",0,0,0,0,0,0,1,0,0,0,0,0,0,0,0,0,0,0,0,0,0,0,0,0,0,0,0,鳳山區,22.5951998,120.3297882
3807010601,乙元中醫診所,07-7193216,高雄市鳳山區,高雄市鳳山區建國路二段59-1號1樓,"中醫一般科,",0,0,0,0,0,0,0,1,0,0,0,1,0,0,0,0,0,0,0,0,0,0,0,0,0,0,0,鳳山區,22.6353804,120.3611269
3707010243,壹八八美學牙醫診所,07-7193018,高雄市鳳山區,高雄市鳳山區三民路77號1-2樓,"牙醫一般科,",0,0,0,0,0,0,0,0,9,0,0,0,0,0,0,0,0,0,0,0,0,0,0,0,0,0,0,鳳山區,22.622406,120.361837
3507010990,和成診所,07-7961900,高雄市鳳山區,高雄市鳳山區南成里和成路71號1-2樓,"家庭醫學科,精神科,",0,0,0,0,0,0,2,0,0,0,0,1,1,0,0,0,0,0,0,0,0,0,0,0,0,0,1,鳳山區,22.590118,120.3379477
3507010696,鳳山德安診所,07-7022957,高雄市鳳山區,高雄市鳳山區瑞興路416號1樓,"內科,",0,0,0,0,0,0,2,0,0,1,1,1,0,0,0,0,0,0,0,0,0,0,0,0,0,0,0,鳳山區,22.6310114,120.3697575
3507010829,博新診所,07-7019595,高雄市鳳山區,高雄市鳳山區博愛路19號1樓及21號1樓,"內科,",0,0,0,0,0,0,1,0,0,1,0,1,0,0,0,0,0,0,0,0,0,0,0,0,0,0,0,鳳山區,22.6263196,120.3744068
3507010892,五甲心靈診所,8412588,高雄市鳳山區,高雄市鳳山區五甲三路75號3-4樓,"精神科,",0,0,0,0,0,0,3,0,0,3,0,1,0,0,0,0,0,0,0,0,0,0,0,0,0,0,0,鳳山區,22.5919609,120.3266902
3807010405,仁恩堂中醫診所,07-740-7130,高雄市鳳山區,高雄市鳳山區光復路130號1-2樓,"中醫一般科,",0,0,0,0,0,0,0,1,0,0,0,1,0,0,0,0,0,0,0,0,0,0,0,0,0,0,0,鳳山區,22.6291442,120.3584841
3507010749,季宏診所,07-7458315,高雄市鳳山區,高雄市鳳山區光復路122號1樓,"內科,精神科,",0,0,0,0,0,0,1,0,0,1,0,2,0,0,0,0,0,0,0,0,0,0,0,0,0,0,0,鳳山區,22.6292155,120.3588301
3507010785,李文豪皮膚科診所,07-7108669,高雄市鳳山區,高雄市鳳山區中和里自由路428號,"皮膚科,",0,0,0,0,0,0,2,0,0,0,0,1,1,0,0,0,0,0,0,0,0,0,0,0,0,0,0,鳳山區,22.6251658,120.3454476
3507010776,恩德婦產科診所,07-7103368,高雄市鳳山區,高雄市鳳山區自由路201號1樓,"婦產科,",0,0,0,0,0,0,1,0,0,2,0,3,0,0,0,0,0,0,0,0,0,0,0,0,0,0,0,鳳山區,22.6255335,120.3507055
3507010801,欣診所,07-7537532,高雄市鳳山區,高雄市鳳山區誠義里15鄰誠義路31號1-2樓,"婦產科,",0,0,0,0,0,0,1,0,0,2,0,1,1,0,0,0,0,0,0,0,0,0,0,0,0,0,0,鳳山區,22.6086433,120.36037
3507010856,鄭淵家診所,07-7026321,高雄市鳳山區,高雄市鳳山區中山東路533號1樓,"外科,西醫一般科,",0,0,0,0,0,0,1,0,0,1,0,0,0,0,0,0,0,0,0,0,0,0,0,0,0,0,0,鳳山區,22.628764,120.3809895
3507010927,瑞文診所,7675688,高雄市鳳山區,高雄市鳳山區新富路330號1樓,"耳鼻喉科,",0,0,0,0,0,0,2,0,0,1,1,2,1,0,0,0,0,0,0,0,0,0,0,0,0,0,0,鳳山區,22.6125824,120.342571
3542014561,楊骨科診所,07-7428996,高雄市鳳山區,高雄市鳳山區五甲一路163號,"骨科,",0,0,0,0,0,0,1,0,0,0,1,1,0,0,0,0,0,1,0,0,0,2,0,0,0,0,0,鳳山區,22.6190708,120.3558689
3542010492,吳文紹診所,07 8111688,高雄市鳳山區,高雄市鳳山區五甲三路３號,"西醫一般科,",0,0,0,0,0,0,2,0,0,0,0,0,1,0,0,0,0,0,0,0,0,0,0,0,0,0,0,鳳山區,22.5929792,120.3280899
3507011237,禾恩診所,,高雄市鳳山區,高雄市鳳山區海洋二路39號1樓,"西醫一般科,",0,0,0,0,0,0,1,0,0,1,0,1,1,0,0,0,0,0,0,0,0,0,0,0,0,0,0,鳳山區,22.6105473,120.3465238
3807010745,元大中醫診所,07-7997553,高雄市鳳山區,高雄市鳳山區經武路202號1樓,"中醫一般科,",0,0,0,0,0,0,0,2,0,0,0,1,0,0,0,0,0,0,0,0,0,0,0,0,0,0,0,鳳山區,22.636881,120.3643063
3807010727,林建昌中醫診所,7195666,高雄市鳳山區,高雄市鳳山區雙慈街9號1-2樓,"中醫一般科,",0,0,0,0,0,0,0,2,0,1,0,1,0,0,0,0,0,0,0,0,0,0,0,0,0,0,0,鳳山區,22.6249206,120.3575602
3507011219,瑞良診所,0972979867,高雄市鳳山區,高雄市鳳山區瑞隆東路212號,"內科,",0,0,0,0,0,0,1,0,0,1,0,3,0,0,0,0,0,0,0,0,0,0,0,0,0,0,0,鳳山區,22.6063348,120.3401993
3742012178,德安牙醫診所,8229928,高雄市鳳山區,高雄市鳳山區五甲二路366號,"牙醫一般科,",0,0,0,0,0,0,0,0,4,0,0,0,0,0,0,0,0,0,0,0,0,0,0,0,0,0,0,鳳山區,22.599085,120.3369829
3707010369,臻欣牙醫診所,7673098,高雄市鳳山區,高雄市鳳山區新富路268號1-2樓,"牙醫一般科,",0,0,0,0,0,0,0,0,4,0,0,1,0,0,0,0,0,0,0,0,0,0,0,0,0,0,0,鳳山區,22.6124504,120.3410835
3542012263,上文耳鼻喉科診所,07 7219442,高雄市鳳山區,高雄市鳳山區五甲二路３２７號,"耳鼻喉科,",0,0,0,0,0,0,2,0,0,2,0,2,1,0,0,0,0,0,0,0,0,0,0,0,0,0,0,鳳山區,22.598555,120.3368505
3742012285,藝術花園牙醫診所,7195111,高雄市鳳山區,高雄市鳳山區自立街37號,"西醫一般科,",0,0,0,0,0,0,0,0,1,0,0,0,0,0,0,0,0,0,0,0,0,0,0,0,0,0,0,鳳山區,22.628441,120.3549595
3707010323,139牙醫診所,07-7191307,高雄市鳳山區,高雄市鳳山區光復路一段139-1號,"牙醫一般科,",0,0,0,0,0,0,0,0,2,0,0,0,0,0,0,0,0,0,0,0,0,0,0,0,0,0,0,鳳山區,22.6291246,120.3506574
3507011148,至善診所,07-7263369,高雄市鳳山區,高雄市鳳山區南正一路110號1樓、110號2樓,"骨科,",0,0,0,0,0,0,1,0,0,1,0,0,1,0,0,0,0,2,0,0,0,2,0,0,0,0,0,鳳山區,22.5967198,120.3354882
3807010692,德佐中醫診所,7313123,高雄市鳳山區,高雄市鳳山區文龍東路276號1樓,"中醫一般科,",0,0,0,0,0,0,0,2,0,0,0,1,0,0,0,0,0,0,0,0,0,0,0,0,0,0,0,鳳山區,22.6408246,120.3676082
3507011246,瑞合耳鼻喉科診所,7688800,高雄市鳳山區,高雄市鳳山區保泰路2-2號1-2樓,"耳鼻喉科,",0,0,0,0,0,0,2,0,0,2,0,5,0,0,0,0,0,0,0,0,0,0,0,0,0,0,0,鳳山區,22.5989297,120.3266085
3507011184,馨安婦產科診所,07-7276111,高雄市鳳山區,高雄市鳳山區五甲二路346-1號1樓,"婦產科,",0,0,0,0,0,0,1,0,0,0,0,2,2,0,0,0,0,0,0,0,0,0,0,0,0,0,0,鳳山區,22.5995753,120.3377146
3507011264,鳳山諾貝爾眼科診所,07-7775876,高雄市鳳山區,高雄市鳳山區青年路二段596號1樓,"眼科,",0,0,0,0,2,1,1,0,0,2,0,3,0,0,0,0,0,0,0,0,0,0,0,0,0,0,0,鳳山區,22.646455,120.3486515
3807010754,五甲馬光中醫診所,,高雄市鳳山區,高雄市鳳山區五甲二路276號1-3樓,"中醫一般科,",0,0,0,0,0,0,0,4,0,1,0,6,0,0,0,0,0,0,0,0,0,0,0,0,0,0,0,鳳山區,22.6005447,120.3389819
3507011157,裕誠眼科診所,,高雄市鳳山區,高雄市鳳山區新富路482號1樓,"眼科,",0,0,0,0,0,1,1,0,0,1,0,4,0,0,0,0,0,0,0,0,0,0,0,0,0,0,0,鳳山區,22.61353,120.3469767
3707010378,鳳林牙醫診所,077815755,高雄市鳳山區,高雄市鳳山區曹公路93號1-3樓,"牙醫一般科,",0,0,0,0,0,0,0,0,1,0,0,0,0,0,0,0,0,0,0,0,0,0,0,0,0,0,0,鳳山區,22.6299881,120.3572059
3807010709,杉禾中醫診所,,高雄市鳳山區,高雄市鳳山區五甲二路609號1樓,"中醫一般科,",0,0,0,0,0,0,0,2,0,0,0,1,0,0,0,0,0,0,0,0,0,0,0,0,0,0,0,鳳山區,22.5948034,120.3305385
3507011175,樂誠復健科診所,077901795,高雄市鳳山區,高雄市鳳山區和平路98之1號1-3樓,"復健科,",0,0,0,0,0,0,2,0,0,0,0,2,0,0,0,0,0,7,1,0,0,0,0,0,0,0,0,鳳山區,22.6324701,120.3573172
3542014972,大立眼科診所,07-7106958,高雄市鳳山區,高雄市鳳山區鳳松路69號1-2樓,"眼科,",0,0,0,0,0,0,2,0,0,0,1,2,0,0,0,0,0,0,0,0,0,0,0,0,0,0,0,鳳山區,22.634724,120.3616523
3542012352,李威德診所,07 8227676,高雄市鳳山區,高雄市鳳山區五甲三路48號1樓,"西醫一般科,",0,0,0,0,0,0,3,0,0,3,0,3,4,0,0,0,0,0,0,0,0,0,0,0,0,0,0,鳳山區,22.5929128,120.3273935
3542012398,盧信昭皮膚科診所,07 2826699   7278664,高雄市鳳山區,高雄市鳳山區五甲二路４４4號一樓,"皮膚科,",0,0,0,0,0,0,1,0,0,2,0,1,2,0,0,0,0,0,0,0,0,0,0,0,0,0,0,鳳山區,22.5981105,120.3355608
3542012441,楊秋龍診所,07 7230191,高雄市鳳山區,高雄市鳳山區大明路１６３號,"西醫一般科,",0,0,0,0,0,0,1,0,0,1,0,0,0,0,0,0,0,0,0,0,0,0,0,0,0,0,0,鳳山區,22.6100075,120.3414258
3542012469,林誓揚診所,07 7482228,高雄市鳳山區,高雄市鳳山區經武路１８號,"西醫一般科,",0,0,0,0,0,0,1,0,0,1,0,0,2,0,0,0,0,0,0,0,0,0,0,0,0,0,0,鳳山區,22.6261916,120.3621853
3542013484,柏愛診所,07-7199313,高雄市鳳山區,高雄市鳳山區博愛路207號,"西醫一般科,",0,0,0,0,0,0,1,0,0,0,0,0,0,0,0,0,0,0,0,0,0,0,0,0,0,0,0,鳳山區,22.6288083,120.370495
3542013608,莊維周婦產科診所,8318999,高雄市鳳山區,高雄市鳳山區五福二路１６５號,"婦產科,",0,0,0,0,0,0,1,0,0,0,0,0,2,0,0,0,0,0,0,0,0,0,0,0,0,0,0,鳳山區,22.587552,120.328182
3542013984,陳柏蒼耳鼻喉科診所,07-7775388,高雄市鳳山區,高雄市鳳山區文衡路480號,"耳鼻喉科,",0,0,0,0,0,0,5,0,0,5,0,2,3,0,0,0,0,0,0,0,0,0,0,0,0,0,0,鳳山區,22.6411075,120.3503154
3542014098,陳重志聯合診所,07-7427329,高雄市鳳山區,高雄市鳳山區光復路一段139號,"內科,兒科,",0,0,0,0,0,0,3,0,0,2,0,5,1,0,0,0,0,0,0,0,0,0,0,0,0,0,0,鳳山區,22.6291246,120.3506574
3542014105,明泰骨科外科診所,7682268,高雄市鳳山區,高雄市鳳山區五甲三路132號1-2樓、134號1樓,"外科,骨科,",0,0,0,0,0,0,1,0,0,1,0,1,2,0,0,0,0,3,0,0,0,1,0,0,0,0,0,鳳山區,22.5915349,120.3255661
3542014132,明馨婦產科診所,7681643,高雄市鳳山區,高雄市鳳山區忠誠路61號1樓,"婦產科,",0,0,0,0,0,0,1,0,0,1,0,2,1,0,0,0,0,0,0,0,0,0,0,0,0,0,0,鳳山區,22.5941788,120.3261387
3542014221,張晉源耳鼻喉科診所,07-7775450,高雄市鳳山區,高雄市鳳山區文衡路451號1樓,"兒科,耳鼻喉科,",0,0,0,0,0,0,2,0,0,2,0,0,1,0,0,0,0,0,0,0,0,0,0,0,0,0,0,鳳山區,22.6412814,120.3479715
3542014230,民安診所,7464813,高雄市鳳山區,高雄市鳳山區光遠路298號,"西醫一般科,",0,0,0,0,0,0,1,0,0,1,0,1,1,0,0,0,0,0,0,0,0,0,0,0,0,0,0,鳳山區,22.6257736,120.3610738
3542011471,林錦浩黃正宗耳鼻喉科診所,07-7419880,高雄市鳳山區,高雄市鳳山區光遠路260號1樓,"兒科,耳鼻喉科,",0,0,0,0,0,0,3,0,0,0,0,1,1,0,0,0,0,0,0,0,0,0,0,0,0,0,0,鳳山區,22.625567,120.362302
3842012465,鍾志光中醫診所,07-7993908,高雄市鳳山區,高雄市鳳山區青年路二段146-5號1樓,"中醫一般科,",0,0,0,0,0,0,0,3,0,0,0,3,0,0,0,0,0,0,0,0,0,0,0,0,0,0,0,鳳山區,22.6350245,120.35035
3842011995,黃蘭媖中醫診所,07-7436066,高雄市鳳山區,高雄市鳳山區文化路119號1樓,"中醫一般科,",0,0,0,0,0,0,0,3,0,2,0,2,1,0,0,0,0,0,0,0,0,0,0,0,0,0,0,鳳山區,22.6342961,120.3518574
3842012134,佑慈中醫診所,07-7196223,高雄市鳳山區,高雄市鳳山區誠義路165號,"中醫一般科,",0,0,0,0,0,0,0,1,0,0,0,1,2,0,0,0,0,0,0,0,0,0,0,0,0,0,0,鳳山區,22.6100185,120.3602837
3707010010,瑞竹牙醫診所,07-7103622,高雄市鳳山區,高雄市鳳山區瑞竹路209號1樓,"牙醫一般科,",0,0,0,0,0,0,0,0,1,0,0,0,0,0,0,0,0,0,0,0,0,0,0,0,0,0,0,鳳山區,22.6281137,120.3694332
3507010034,揚銘診所,07-7905605,高雄市鳳山區,高雄市鳳山區自由路111號1樓,"內科,",0,0,0,0,0,0,2,0,0,0,0,10,2,0,0,0,0,0,0,0,0,0,0,0,0,0,0,鳳山區,22.6257118,120.3526942
3507010114,文山診所,07-7107010,高雄市鳳山區,高雄市鳳山區建國路三段157號1樓,"內科,",0,0,0,0,0,0,4,0,0,0,0,6,0,0,0,0,0,0,0,0,0,0,0,0,0,1,2,鳳山區,22.6367981,120.3536336
3807010049,盧家中醫診所,07-7685311,高雄市鳳山區,高雄市鳳山區自強一路2-1號1-3樓,"中醫一般科,",0,0,0,0,0,0,0,3,0,0,0,2,0,0,0,0,0,0,0,0,0,0,0,0,0,0,0,鳳山區,22.5882707,120.3306079
3507010052,韻田耳鼻喉科診所,07-7991966,高雄市鳳山區,高雄市鳳山區青年路二段146-2號1樓,"耳鼻喉科,",0,0,0,0,0,0,1,0,0,0,1,0,0,0,0,0,0,0,0,0,0,0,0,0,0,0,0,鳳山區,22.6350245,120.35035
3507010141,新宏亞診所,07-8229340,高雄市鳳山區,高雄市鳳山區五甲三路57號1樓,"西醫一般科,",0,0,0,0,0,0,1,0,0,1,0,1,0,0,0,0,0,0,0,0,0,0,0,0,0,0,0,鳳山區,22.592263,120.3270791
3807010058,大大中醫診所,07-7455139,高雄市鳳山區,高雄市鳳山區瑞興路367號1-2樓,"中醫一般科,",0,0,0,0,0,0,0,2,0,0,0,2,0,0,0,0,0,0,0,0,0,0,0,0,0,0,0,鳳山區,22.6300846,120.3675087
3807010101,銓泰中醫診所,07-7669828,高雄市鳳山區,高雄市鳳山區南京路237號1樓,"中醫一般科,",0,0,0,0,0,0,0,2,0,0,0,0,2,0,0,0,0,0,0,0,0,0,0,0,0,0,0,鳳山區,22.6119696,120.3453185
3507010123,好心診所,07-7676688,高雄市鳳山區,高雄市鳳山區文濱路196號1樓,"內科,",0,0,0,0,0,0,2,0,0,0,0,4,1,0,0,0,0,0,0,0,0,0,0,0,0,0,0,鳳山區,22.6444506,120.3502593
3807010129,郭秩嘉傳統中醫診所,07-7678789,高雄市鳳山區,高雄市鳳山區建國路三段165號1樓,"中醫一般科,",0,0,0,0,0,0,0,1,0,0,0,0,0,0,0,0,0,0,0,0,0,0,0,0,0,0,0,鳳山區,22.6367565,120.3532746
3507010285,吳文誌診所,07-7820958,高雄市鳳山區,高雄市鳳山區鳳林路157號1樓,"內科,",0,0,0,0,0,0,2,0,0,0,0,1,2,0,0,0,0,0,0,0,0,0,0,0,0,0,0,鳳山區,22.6224157,120.3773992
3707010083,李牙醫診所,07-8216885,高雄市鳳山區,高雄市鳳山區忠誠路59號1樓,"牙醫一般科,",0,0,0,0,0,0,0,0,2,0,0,0,0,0,0,0,0,0,0,0,0,0,0,0,0,0,0,鳳山區,22.594144,120.3261518
3542011364,錦明小兒科診所,07 8310466,高雄市鳳山區,高雄市鳳山區自強二路１７1號,"兒科,",0,0,0,0,0,0,1,0,0,0,0,1,0,0,0,0,0,0,0,0,0,0,0,0,0,0,0,鳳山區,22.5971155,120.3269495
3542015086,曹家齊眼科診所,8155558,高雄市鳳山區,"高雄市鳳山區五甲三路101號1,2樓","眼科,",0,0,0,0,0,0,1,0,0,0,1,1,0,0,0,0,0,0,0,0,0,0,0,0,0,0,0,鳳山區,22.5916423,120.3262962
3542010036,高內兒科診所,07-7424597,高雄市鳳山區,高雄市鳳山區民生路81號,"內科,兒科,",0,0,0,0,0,0,1,0,0,0,1,0,0,0,0,0,0,0,0,0,0,0,0,0,0,0,0,鳳山區,22.6264828,120.3608272
3742011064,大新牙醫診所,07 8311700  7686588,高雄市鳳山區,高雄市鳳山區五甲二路418號,"牙醫一般科,",0,0,0,0,0,0,0,0,1,0,0,0,0,0,0,0,0,0,0,0,0,0,0,0,0,0,0,鳳山區,22.5983618,120.3359895
3742011135,廣宸牙醫診所,07 7901099,高雄市鳳山區,高雄市鳳山區光復路一段１１０號,"牙醫一般科,",0,0,0,0,0,0,0,0,1,0,0,0,0,0,0,0,0,0,0,0,0,0,0,0,0,0,0,鳳山區,22.6293513,120.3510046
3742012203,來來牙醫診所,7455509,高雄市鳳山區,高雄市鳳山區中山西路376-6號,"牙醫一般科,",0,0,0,0,0,0,0,0,2,0,0,0,0,0,0,0,0,0,0,0,0,0,0,0,0,0,0,鳳山區,22.6290003,120.3412033
3742012445,美森牙醫診所,7775527,高雄市鳳山區,高雄市鳳山區文濱路188號,"牙醫一般科,",0,0,0,0,0,0,0,0,4,0,0,0,0,0,0,0,0,0,0,0,0,0,0,0,0,0,0,鳳山區,22.6443602,120.350259
3842012527,宜璇中醫診所,07-8126995,高雄市鳳山區,高雄市鳳山區福興里自強一路41號1樓,"中醫一般科,",0,0,0,0,0,0,0,1,0,0,0,0,0,0,0,0,0,0,0,0,0,0,0,0,0,0,0,鳳山區,22.5891167,120.3298405
3742010585,聖仁牙醫診所,02 7713313,高雄市鳳山區,高雄市鳳山區武營路２１２號,"牙醫一般科,",0,0,0,0,0,0,0,0,1,0,0,0,0,0,0,0,0,0,0,0,0,0,0,0,0,0,0,鳳山區,22.610811,120.337575
3742010610,盈眾牙醫診所,07 7635267,高雄市鳳山區,高雄市鳳山區海洋二路１６１號,"牙醫一般科,",0,0,0,0,0,0,0,0,1,0,0,0,0,0,0,0,0,0,0,0,0,0,0,0,0,0,0,鳳山區,22.6131893,120.3486954
3742010692,鍾昭美牙醫診所,07 7682172,高雄市鳳山區,高雄市鳳山區五甲二路556號,"牙醫一般科,",0,0,0,0,0,0,0,0,1,0,0,0,0,0,0,0,0,0,0,0,0,0,0,0,0,0,0,鳳山區,22.5965272,120.333126
3742010772,翠柏牙醫診所,07 7458115,高雄市鳳山區,高雄市鳳山區青年路二段１８０號,"牙醫一般科,",0,0,0,0,0,0,0,0,1,0,0,0,0,0,0,0,0,0,0,0,0,0,0,0,0,0,0,鳳山區,22.6366775,120.3506745
3742010861,澄清牙醫診所,07 7107888,高雄市鳳山區,高雄市鳳山區澄清路８２號,"牙醫一般科,",0,0,0,0,0,0,0,0,1,0,0,0,0,0,0,0,0,0,0,0,0,0,0,0,0,0,0,鳳山區,22.6268305,120.3445851
3542014927,葉耳鼻喉科診所,07-7778783,高雄市鳳山區,高雄市鳳山區青年路二段373號1樓,"耳鼻喉科,",0,0,0,0,0,0,2,0,0,2,0,1,0,0,0,0,0,0,0,0,0,0,0,0,0,0,0,鳳山區,22.6417322,120.3508566
1542010141,優生婦產科醫院,07 7478629,高雄市鳳山區,高雄市鳳山區自由路１８９號,"兒科,婦產科,",0,0,0,0,0,0,4,0,0,2,0,10,8,0,0,1,0,0,0,0,0,0,0,0,0,0,0,鳳山區,22.6255889,120.3509603
3842012509,健順中醫診所,07-7779381,高雄市鳳山區,高雄市鳳山區文化西路22號1樓,"中醫一般科,",0,0,0,0,0,0,0,1,0,0,0,0,0,0,0,0,0,0,0,0,0,0,0,0,0,0,0,鳳山區,22.6349476,120.3494002
3807010432,丁郁仁傳統中醫診所,07-7803333,高雄市鳳山區,高雄市鳳山區青年路二段269號1樓,"中醫一般科,",0,0,0,0,0,0,0,3,0,1,0,4,1,0,0,0,0,0,0,0,0,0,0,0,0,0,0,鳳山區,22.6389015,120.3505441
1507010014,新高鳳醫院,07-7472320,高雄市鳳山區,高雄市鳳山區光遠路360號1~7樓,"家庭醫學科,內科,眼科,復健科,",8,0,0,0,0,2,5,0,0,3,0,17,2,0,0,2,0,8,10,1,0,1,0,0,0,1,1,鳳山區,22.6262125,120.3587064
3707010118,巨樺牙醫診所,,高雄市鳳山區,高雄市鳳山區五甲二路536號1~2樓,"牙醫一般科,",0,0,0,0,0,0,0,0,2,0,0,0,0,0,0,0,0,0,0,0,0,0,0,0,0,0,0,鳳山區,22.5966683,120.3335396
3707010216,富驊牙醫診所,07-7775522,高雄市鳳山區,高雄市鳳山區青年路二段391號1-2樓,"牙醫一般科,",0,0,0,0,0,0,0,0,4,0,0,0,0,0,0,0,0,0,0,0,0,0,0,0,0,0,0,鳳山區,22.6426498,120.3512446
3507010605,曾建森診所,07-8121515,高雄市鳳山區,高雄市鳳山區五甲三路117、119號1、2樓,"內科,",0,0,0,0,0,0,3,0,0,0,0,1,2,0,0,0,0,0,0,0,0,0,0,0,0,0,1,鳳山區,22.5913387,120.3259757
3507010481,黃柏仁診所,07-7132835,高雄市鳳山區,高雄市鳳山區文豐街36巷3號1樓,"內科,",0,0,0,0,0,0,1,0,0,1,0,1,0,0,0,0,0,0,0,0,0,0,0,0,0,0,0,鳳山區,22.5967578,120.3356521
3507010490,晨恩復健科診所,07-7408681,高雄市鳳山區,高雄市鳳山區建國路二段57-1號1-4樓,"復健科,",0,0,0,0,0,0,1,0,0,0,0,3,0,0,0,0,0,5,3,0,0,0,0,0,0,0,0,鳳山區,22.6354376,120.3612394
3507010516,杏康診所,07-7407580,高雄市鳳山區,高雄市鳳山區文化路47-1號1樓,"家庭醫學科,外科,",0,0,0,0,0,0,1,0,0,2,0,5,0,0,0,0,0,0,0,0,0,0,0,0,0,0,0,鳳山區,22.6335379,120.3562921
3707010190,弘馨牙醫診所,0981574537,高雄市鳳山區,高雄市鳳山區文中街226號1.2樓,"牙醫一般科,",0,0,0,0,0,0,0,0,1,0,0,0,0,0,0,0,0,0,0,0,0,0,0,0,0,0,0,鳳山區,22.6418452,120.3528883
3507010614,佑安耳鼻喉科診所,07-7030333,高雄市鳳山區,高雄市鳳山區中山東路164號1樓,"耳鼻喉科,",0,0,0,0,0,0,3,0,0,0,0,4,0,0,0,0,0,0,0,0,0,0,0,0,0,0,0,鳳山區,22.6257103,120.3749025
3507010641,九大五甲診所,,高雄市鳳山區,高雄市鳳山區五甲二路348號1-2樓,"內科,",0,0,0,0,0,0,2,0,0,0,0,3,0,0,0,0,0,0,0,0,0,0,0,0,0,0,0,鳳山區,22.5995262,120.3375865
3707010207,Abc鳳山牙醫診所,07-7406899,高雄市鳳山區,高雄市鳳山區維新路155號2至4樓,"牙醫一般科,",0,0,0,0,0,0,0,0,5,0,0,1,0,0,0,0,0,0,0,0,0,0,0,0,0,0,0,鳳山區,22.6254005,120.3616083
3507010712,陳彥伸耳鼻喉科診所,0953133562,高雄市鳳山區,高雄市鳳山區五甲二路346號1樓,"耳鼻喉科,",0,0,0,0,0,0,2,0,0,2,0,3,1,0,0,0,0,0,0,0,0,0,0,0,0,0,0,鳳山區,22.5995733,120.337651
3507010525,鴻仁健康診所,07-7408333,高雄市鳳山區,高雄市鳳山區青年路二段148號1-2樓,"內科,",0,0,0,0,0,0,2,0,0,1,0,18,2,0,0,0,0,0,0,0,0,0,0,0,0,0,0,鳳山區,22.6356239,120.3505126
3807010370,鳳山馬光中醫診所,07-7478055,高雄市鳳山區,高雄市鳳山區維新路122號1-2樓,"中醫一般科,",0,0,0,0,0,0,0,7,0,2,0,8,0,0,0,0,0,0,0,0,0,0,0,0,0,0,0,鳳山區,22.6245318,120.3610686
3707010181,親巧牙醫診所,07-7019002,高雄市鳳山區,高雄市鳳山區中山東路192巷151號1樓,"牙醫一般科,",0,0,0,0,0,0,0,0,2,0,0,1,0,0,0,0,0,0,0,0,0,0,0,0,0,0,0,鳳山區,22.6232008,120.3804682
3507010650,高丹榕診所,07-7475556,高雄市鳳山區,高雄市鳳山區光復路二段223號1樓,"兒科,",0,0,0,0,0,0,1,0,0,0,2,2,0,0,0,0,0,0,0,0,0,0,0,0,0,0,0,鳳山區,22.6292646,120.3446879
3507010089,文鳳診所,07-7807333,高雄市鳳山區,高雄市鳳山區文鳳路5號1樓,"精神科,",0,0,0,0,0,0,3,0,0,2,0,0,0,0,0,0,0,0,0,0,0,0,0,0,0,0,0,鳳山區,22.6419361,120.3509179
3707010047,鳳山誠品牙醫診所,07-7655556,高雄市鳳山區,高雄市鳳山區海洋一路149號1-2樓,"牙醫一般科,",0,0,0,0,0,0,0,0,3,0,0,0,0,0,0,0,0,0,0,0,0,0,0,0,0,0,0,鳳山區,22.6101484,120.3452691
3742011046,大立牙醫診所,07 7030169,高雄市鳳山區,高雄市鳳山區中山東路306號1、2F,"牙醫一般科,",0,0,0,0,0,0,0,0,4,0,0,0,0,0,0,0,0,0,0,0,0,0,0,0,0,0,0,鳳山區,22.6277585,120.3797011
3742011082,宗慶牙醫診所,07 7533733,高雄市鳳山區,高雄市鳳山區中崙路５７２號,"牙醫一般科,",0,0,0,0,0,0,0,0,1,0,0,0,0,0,0,0,0,0,0,0,0,0,0,0,0,0,0,鳳山區,22.6019772,120.3509841
3742012141,德月牙醫診所,7243089,高雄市鳳山區,高雄市鳳山區海洋一路119號,"牙醫一般科,",0,0,0,0,0,0,0,0,2,0,0,0,0,0,0,0,0,0,0,0,0,0,0,0,0,0,0,鳳山區,22.6100472,120.3440525
3742012196,大耀牙醫診所,7100925,高雄市鳳山區,高雄市鳳山區文衡路105號,"牙醫一般科,",0,0,0,0,0,0,0,0,2,0,0,0,0,0,0,0,0,0,0,0,0,0,0,0,0,0,0,鳳山區,22.637277,120.356546
3742012221,信誼牙醫診所,7650001,高雄市鳳山區,高雄市鳳山區凱旋路265號2F,"牙醫一般科,",0,0,0,0,0,0,0,0,1,0,0,0,0,0,0,0,0,0,0,0,0,0,0,0,0,0,0,鳳山區,22.6133167,120.349054
3742012276,雙慈牙醫診所,07-7996600,高雄市鳳山區,高雄市鳳山區雙慈街13號,"牙醫一般科,",0,0,0,0,0,0,0,0,1,0,0,0,0,0,0,0,0,0,0,0,0,0,0,0,0,0,0,鳳山區,22.6248896,120.3574517
3742012301,小熊牙醫診所,07-7775661,高雄市鳳山區,高雄市鳳山區青年路二段三八三號,"牙醫一般科,",0,0,0,0,0,0,0,0,2,0,0,0,0,0,0,0,0,0,0,0,0,0,0,0,0,0,0,鳳山區,22.6375664,120.3505793
3742012310,康馨牙醫診所,7766256,高雄市鳳山區,高雄市鳳山區青年路二段362之1號,"牙醫一般科,",0,0,0,0,0,0,0,0,1,0,0,0,0,0,0,0,0,0,0,0,0,0,0,0,0,0,0,鳳山區,22.6420997,120.3515841
3742012329,富安牙醫診所,7465766,高雄市鳳山區,高雄市鳳山區經武路298號,"牙醫一般科,",0,0,0,0,0,0,0,0,2,0,0,0,0,0,0,0,0,0,0,0,0,0,0,0,0,0,0,鳳山區,22.6389262,120.3647402
3742012347,慧康牙醫診所,7195123,高雄市鳳山區,高雄市鳳山區經武路351號,"牙醫一般科,",0,0,0,0,0,0,0,0,1,0,0,0,0,0,0,0,0,0,0,0,0,0,0,0,0,0,0,鳳山區,22.6390611,120.3644367
3542011551,文衡診所,07-7768185,高雄市鳳山區,高雄市鳳山區文衡路３４４號,"家庭醫學科,",0,0,0,0,0,0,1,0,0,1,0,0,1,0,0,0,0,0,0,0,0,0,0,0,0,0,0,鳳山區,22.6402089,120.3549872
3542011775,邱正義婦產科診所,07-7416177,高雄市鳳山區,高雄市鳳山區光復路1號1-4樓,"婦產科,",0,0,0,0,0,0,1,0,0,2,0,7,5,0,0,0,0,0,0,0,0,0,0,0,0,0,0,鳳山區,22.6286186,120.3623541
3542011800,鳳山全民診所,07-7037038,高雄市鳳山區,高雄市鳳山區博愛路328號1-2樓,"家庭醫學科,婦產科,",0,0,0,0,0,0,3,0,0,0,0,4,0,0,0,0,0,0,0,0,0,0,0,0,0,0,0,鳳山區,22.630755,120.3687298
3542011819,博勝復健科診所,07-7017958,高雄市鳳山區,高雄市鳳山區博愛路23號1-2樓,"復健科,",0,0,0,0,0,0,2,0,0,0,0,0,0,0,0,0,0,9,2,0,0,2,1,0,0,0,0,鳳山區,22.6263719,120.3743029
3542011873,佳音皮膚科診所,07-7103304,高雄市鳳山區,高雄市鳳山區中山路７３之５號,"皮膚科,",0,0,0,0,0,0,3,0,0,0,0,3,0,0,0,0,0,0,0,0,0,0,0,0,0,0,0,鳳山區,22.6213349,120.3602741
3542011917,林耳鼻喉科診所,07 7513087,高雄市鳳山區,高雄市鳳山區五甲二路３４５號,"耳鼻喉科,",0,0,0,0,0,0,2,0,0,2,1,2,1,0,0,0,0,0,0,0,0,0,0,0,0,0,0,鳳山區,22.5982769,120.3364395
3542011935,唯均耳鼻喉科診所,07 7638199,高雄市鳳山區,高雄市鳳山區海洋二路１３９號,"耳鼻喉科,",0,0,0,0,0,0,1,0,0,1,0,2,0,0,0,0,0,0,0,0,0,0,0,0,0,0,0,鳳山區,22.6127706,120.3483253
3542011953,瑞康診所,07 7138866,高雄市鳳山區,高雄市鳳山區南華路206號,"家庭醫學科,",0,0,0,0,0,0,1,0,0,1,0,0,0,0,0,0,0,0,0,0,0,0,0,0,0,0,0,鳳山區,22.6032696,120.337733
3542011962,上健診所,07 7532687,高雄市鳳山區,高雄市鳳山區中崙四路12號一Ｆ,"家庭醫學科,",0,0,0,0,0,0,1,0,0,0,0,1,0,0,0,0,0,0,0,0,0,0,0,0,0,0,0,鳳山區,22.5996777,120.3521774
3542012076,黃大沅小兒科診所,07 7109299,高雄市鳳山區,高雄市鳳山區青年路二段468號,"兒科,",0,0,0,0,0,0,1,0,0,0,0,2,0,0,0,0,0,0,0,0,0,0,0,0,0,0,0,鳳山區,22.6441319,120.3515176
3542012085,陳皮膚科診所,07 8158068,高雄市鳳山區,高雄市鳳山區龍成路123巷28號1樓,"皮膚科,",0,0,0,0,0,0,1,0,0,1,0,1,1,0,0,0,0,0,0,0,0,0,0,0,0,0,0,鳳山區,22.5990658,120.3288151
3542012094,均安診所,07 7533241,高雄市鳳山區,高雄市鳳山區中崙四路２２號,"西醫一般科,",0,0,0,0,0,0,1,0,0,0,0,1,0,0,0,0,0,0,0,0,0,0,0,0,0,0,0,鳳山區,22.5997119,120.351502
3542012129,萬安診所,07 8412633,高雄市鳳山區,高雄市鳳山區五甲三路55號,"神經科,",0,0,0,0,0,0,1,0,0,1,0,1,0,0,0,0,0,0,0,0,0,0,0,0,0,0,0,鳳山區,22.5922825,120.3271066
3542012165,孫銘謙骨科外科診所,07 7171716,高雄市鳳山區,高雄市鳳山區南正二路３１號,"外科,骨科,",0,0,0,0,0,0,3,0,0,3,0,2,3,0,0,0,0,2,0,0,1,3,0,0,0,0,0,鳳山區,22.5978394,120.3338164
3542014329,鳳頂診所,7021766   7962166,高雄市鳳山區,高雄市鳳山區鳳頂路380號,"西醫一般科,",0,0,0,0,0,0,1,0,0,1,0,0,1,0,0,0,0,0,0,0,0,0,0,0,0,0,0,鳳山區,22.5937348,120.3592017
3542014525,元富診所,7638666,高雄市鳳山區,高雄市鳳山區新富路237號1、2樓,"內科,",0,0,0,0,0,0,2,0,0,0,0,2,1,0,0,0,0,0,0,0,0,0,0,0,0,0,0,鳳山區,22.612956,120.33883
3542010465,正安內科皮膚科診所,07-7467732,高雄市鳳山區,高雄市鳳山區經武路137號,"內科,皮膚科,",0,0,0,0,0,0,1,0,0,0,0,0,0,0,0,0,0,0,0,0,0,0,0,0,0,0,0,鳳山區,22.6343106,120.363495
3542010518,謝內兒科診所,07 7410915,高雄市鳳山區,高雄市鳳山區光遠路３０５號,"內科,兒科,",0,0,0,0,0,0,1,0,0,1,0,0,0,0,0,0,0,0,0,0,0,0,0,0,0,0,0,鳳山區,22.6259044,120.3574746
3542010563,陳弘列內兒科診所,07 8111227,高雄市鳳山區,高雄市鳳山區五甲二路６９７號,"內科,兒科,",0,0,0,0,0,0,1,0,0,0,1,0,1,0,0,0,0,0,0,0,0,0,0,0,0,0,0,鳳山區,22.593643,120.3289697
3542010652,世全診所,07 7463353,高雄市鳳山區,高雄市鳳山區中山路７３號,"西醫一般科,",0,0,0,0,0,0,1,0,0,0,0,0,1,0,0,0,0,0,0,0,0,0,0,0,0,0,0,鳳山區,22.6212762,120.360475
3542010723,國民小兒科診所,07-7427925,高雄市鳳山區,高雄市鳳山區中正路３７號,"兒科,",0,0,0,0,0,0,1,0,0,1,0,0,1,0,0,0,0,0,0,0,0,0,0,0,0,0,0,鳳山區,22.6251963,120.3591721
3542010769,安心婦產科診所,07-7434086,高雄市鳳山區,高雄市鳳山區經武路８１號,"婦產科,",0,0,0,0,0,0,1,0,0,1,0,0,0,0,0,0,0,0,0,0,0,0,0,0,0,0,0,鳳山區,22.6277756,120.3622299
3542010956,張簡精神科診所,07 7632048,高雄市鳳山區,高雄市鳳山區五甲一路６００號,"精神科,",0,0,0,0,0,0,1,0,0,0,1,0,0,0,0,0,0,0,0,0,0,0,0,0,0,0,0,鳳山區,22.6047109,120.3456256
3542011042,施眼科診所,07-7419229,高雄市鳳山區,高雄市鳳山區中山西路３８１號,"眼科,",0,0,0,0,0,0,1,0,0,1,0,0,0,0,0,0,0,0,0,0,0,0,0,0,0,0,0,鳳山區,22.6280234,120.3451092
3542011104,同仁診所,07-7462636,高雄市鳳山區,高雄市鳳山區中山路213號,"西醫一般科,",0,0,0,0,0,0,1,0,0,1,0,1,0,0,0,0,0,0,0,0,0,0,0,0,0,0,0,鳳山區,22.6243664,120.3569217
3542011113,藍傳盛內科診所,07-7475195,高雄市鳳山區,高雄市鳳山區中正路９２號,"內科,",0,0,0,0,0,0,1,0,0,0,2,0,0,0,0,0,0,0,0,0,0,0,0,0,0,0,0,鳳山區,22.6266243,120.3601544
3542011131,清水診所,07 7619911,高雄市鳳山區,高雄市鳳山區瑞隆東路４０號,"外科,",0,0,0,0,0,0,1,0,0,0,0,1,0,0,0,0,0,0,0,0,0,0,0,0,0,0,0,鳳山區,22.6067595,120.345099
3542011202,羅小兒科診所,07-7778248,高雄市鳳山區,高雄市鳳山區青年路二段１７３號,"兒科,",0,0,0,0,0,0,1,0,0,1,0,0,0,0,0,0,0,0,0,0,0,0,0,0,0,0,0,鳳山區,22.6350088,120.350077
3542014552,健元內科診所,7164100  7135297,高雄市鳳山區,高雄市鳳山區武慶二路126號,"內科,",0,0,0,0,0,0,1,0,0,1,0,1,0,0,0,0,0,0,0,0,0,0,0,0,0,0,0,鳳山區,22.6127621,120.3329598
3542014623,長新診所,07-7196633,高雄市鳳山區,高雄市鳳山區大東一路137號1至3樓,"內科,",0,0,0,0,0,0,2,0,0,2,0,16,1,0,0,0,0,0,0,0,0,0,0,0,0,0,0,鳳山區,22.6216011,120.3610417
3542014356,上禾診所,07-7407666,高雄市鳳山區,高雄市鳳山區青年路二段152號1-2樓及154號1樓,"骨科,復健科,",0,0,0,0,0,0,2,0,0,2,0,4,0,0,0,0,0,8,1,0,0,2,0,0,0,0,0,鳳山區,22.6362325,120.3506076
3542014392,新華田內科診所,07-7999128,高雄市鳳山區,高雄市鳳山區曹公路16 - 4號,"內科,",0,0,0,0,0,0,1,0,0,1,1,4,3,0,0,0,0,0,0,0,0,0,0,0,0,0,0,鳳山區,22.6289135,120.3573101
3542014507,黃骨外科診所,07-7439525,高雄市鳳山區,高雄市鳳山區文化路45-5號1-2樓及45-6號1樓,"外科,骨科,",0,0,0,0,0,0,1,0,0,1,0,1,1,0,0,0,0,2,0,0,0,0,0,0,0,0,0,鳳山區,22.633415,120.357103
3542013751,吳辰龍耳鼻喉科診所,7661910,高雄市鳳山區,高雄市鳳山區新富路352  354號,"耳鼻喉科,",0,0,0,0,0,0,2,0,0,2,0,0,2,0,0,0,0,0,0,0,0,0,0,0,0,0,0,鳳山區,22.612722,120.343042
3542013886,黃榮隆診所,07-7767700,高雄市鳳山區,高雄市鳳山區文衡路460號,"西醫一般科,",0,0,0,0,0,0,1,0,0,1,0,0,1,0,0,0,0,0,0,0,0,0,0,0,0,0,0,鳳山區,22.6407841,120.3514676
3542014016,吳外科骨科診所,07-7465265,高雄市鳳山區,高雄市鳳山區中山西路102-9號1-2樓,"內科,外科,骨科,",0,0,0,0,0,0,2,0,0,2,0,1,1,0,0,0,0,1,0,0,0,1,0,0,0,0,0,鳳山區,22.627056,120.3525433
3542014114,郭崇志診所,7100192,高雄市鳳山區,高雄市鳳山區光復路一段171號,"家庭醫學科,",0,0,0,0,0,0,2,0,0,2,0,2,1,0,0,0,0,0,0,0,0,0,0,0,0,0,0,鳳山區,22.6291624,120.3498568
3542011677,正光診所,07-7415891,高雄市鳳山區,高雄市鳳山區中正路２０３號一、三樓,"骨科,",0,0,0,0,0,0,1,0,0,1,0,2,2,0,0,0,0,1,0,0,0,2,0,0,0,0,0,鳳山區,22.6293994,120.3605869
3542011926,大佳眼科診所,07 8413695,高雄市鳳山區,高雄市鳳山區五甲三路３０號,"眼科,",0,0,0,0,0,0,1,0,0,1,1,0,1,0,0,0,0,0,0,0,0,0,0,0,0,0,0,鳳山區,22.5931231,120.3275868
3542012021,蔡耳鼻喉科診所,07-7196901,高雄市鳳山區,高雄市鳳山區中山西路277號1樓,"耳鼻喉科,",0,0,0,0,0,0,1,0,0,0,1,0,0,0,0,0,0,0,0,0,0,0,0,0,0,0,0,鳳山區,22.6278811,120.3475459
3542012067,昭融耳鼻喉科診所,07 7167791,高雄市鳳山區,高雄市鳳山區新富路３６２號,"耳鼻喉科,",0,0,0,0,0,0,1,0,0,1,0,1,1,0,0,0,0,0,0,0,0,0,0,0,0,0,0,鳳山區,22.6127093,120.3433473
3542012307,澄明診所,07 7633595,高雄市鳳山區,高雄市鳳山區國富路２８號,"家庭醫學科,",0,0,0,0,0,0,1,0,0,1,0,1,1,0,0,0,0,0,0,0,0,0,0,0,0,0,0,鳳山區,22.615551,120.349794
3542011097,吳內科診所,07-7425519,高雄市鳳山區,高雄市鳳山區中正路96號,"內科,",0,0,0,0,0,0,1,0,0,0,0,0,0,0,0,0,0,0,0,0,0,0,0,0,0,0,0,鳳山區,22.626739,120.360083
3742012687,蘋果牙醫診所,07-7682525,高雄市鳳山區,高雄市鳳山區五甲三路91號,"牙醫一般科,",0,0,0,0,0,0,0,0,3,0,0,2,1,0,0,0,0,0,0,0,0,0,0,0,0,0,0,鳳山區,22.5917455,120.3264568
3542014856,文華耳鼻喉科診所,07-7902555,高雄市鳳山區,高雄市鳳山區文化路117號1樓,"耳鼻喉科,皮膚科,",0,0,0,0,0,0,3,0,0,2,0,0,2,0,0,0,0,0,0,0,0,0,0,0,0,0,0,鳳山區,22.6342445,120.351864
1542010052,大東醫院,07-7463762,高雄市鳳山區,高雄市鳳山區光遠路171-2號,"家庭醫學科,內科,外科,骨科,",0,0,0,0,0,0,8,0,0,5,0,36,10,0,0,3,0,1,0,3,0,2,0,2,0,0,1,鳳山區,22.6253612,120.3619317
1542011237,惠德醫院,07-8126000,高雄市鳳山區,高雄市鳳山區福祥街81號及同號2樓,"內科,復健科,",0,0,0,0,0,0,4,0,0,3,0,16,1,0,0,3,0,7,5,1,0,4,1,0,0,0,1,鳳山區,22.5921416,120.3251446
1542011246,仁惠婦幼醫院,(07)7104397,高雄市鳳山區,高雄市鳳山區自由路81號,"內科,婦產科,",0,0,0,0,0,0,4,0,0,2,0,13,3,0,0,1,0,0,0,1,0,0,0,2,0,0,1,鳳山區,22.6258185,120.3533356
1542011282,杏和醫院,07-7613111,高雄市鳳山區,高雄市鳳山區五甲二路385號、387號、389號、391號B1-9樓、470號1樓,"家庭醫學科,內科,外科,婦產科,骨科,泌尿科,復健科,麻醉科,",2,0,0,0,0,0,15,0,0,8,0,62,19,1,0,10,0,6,1,5,1,1,1,2,0,0,2,鳳山區,22.5978392,120.3355959
3542014838,松佑診所,07-7802222,高雄市鳳山區,高雄市鳳山區文德路92號1-2樓,"西醫一般科,",0,0,0,0,0,0,2,0,0,1,0,1,1,0,0,0,0,0,0,0,0,0,0,0,0,0,0,鳳山區,22.6399766,120.3531863
3542015004,黃智興診所,7276688,高雄市鳳山區,高雄市鳳山區五甲二路356之1號1樓,"內科,",0,0,0,0,0,0,1,0,0,0,1,1,1,0,0,0,0,0,0,0,0,0,0,0,0,0,0,鳳山區,22.5993586,120.3373659
3842012456,漢醫館中醫診所,,高雄市鳳山區,高雄市鳳山區國富路29-1號1樓,"中醫一般科,",0,0,0,0,0,0,0,1,0,1,0,0,0,0,0,0,0,0,0,0,0,0,0,0,0,0,0,鳳山區,22.615487,120.349189
3742012696,翔新牙醫診所,07-8410338,高雄市鳳山區,高雄市鳳山區五甲三路97號1樓,"牙醫一般科,",0,0,0,0,0,0,0,0,2,0,0,0,0,0,0,0,0,0,0,0,0,0,0,0,0,0,0,鳳山區,22.5916424,120.3263053
3507010703,牛伯伯兒科診所,07-7808123,高雄市鳳山區,高雄市鳳山區建國路三段338號1樓及夾層,"兒科,",0,0,0,0,0,0,1,0,0,1,0,0,0,0,0,0,0,0,0,0,0,0,0,0,0,0,0,鳳山區,22.6379561,120.349578
3742012703,晨康牙醫診所,7962088,高雄市鳳山區,高雄市鳳山區鳳頂路526號1樓,"牙醫一般科,",0,0,0,0,0,0,0,0,1,0,0,0,0,0,0,0,0,0,0,0,0,0,0,0,0,0,0,鳳山區,22.595706,120.3596
3507010436,高晟診所,07-7823399,高雄市鳳山區,高雄市鳳山區鳳東路368號1-4樓,"兒科,",0,0,0,0,0,0,2,0,0,0,0,9,0,0,0,0,0,0,0,0,0,0,0,0,0,0,0,鳳山區,22.622128,120.3766295
3742010674,親民牙醫診所,07 7634210,高雄市鳳山區,高雄市鳳山區新富路５０４號,"牙醫一般科,",0,0,0,0,0,0,0,0,1,0,0,0,0,0,0,0,0,0,0,0,0,0,0,0,0,0,0,鳳山區,22.6138452,120.3472792
3807010567,仁宇堂中醫診所,07-7991113,高雄市鳳山區,高雄市鳳山區博愛路375號1樓,"中醫一般科,",0,0,0,0,0,0,0,1,0,0,0,0,0,0,0,0,0,0,0,0,0,0,0,0,0,0,0,鳳山區,22.631028,120.3673891
3542013635,太眾診所,07-7464592,高雄市鳳山區,高雄市鳳山區中正路180號1樓及180-1號1樓,"西醫一般科,",0,0,0,0,0,0,1,0,0,1,0,0,0,0,0,0,0,0,0,0,0,0,0,0,0,0,0,鳳山區,22.6287692,120.3607039
3542013920,光遠骨科外科診所,7418535,高雄市鳳山區,高雄市鳳山區光遠路七七號1、2、3樓,"外科,骨科,",0,0,0,0,0,0,1,0,0,1,0,1,2,0,0,0,0,2,0,0,0,1,0,0,0,0,0,鳳山區,22.6255034,120.3619234
3807010307,仁一中醫診所,07-7807888,高雄市鳳山區,高雄市鳳山區文德路31號1樓,"中醫一般科,",0,0,0,0,0,0,0,1,0,0,0,0,1,0,0,0,0,0,0,0,0,0,0,0,0,0,0,鳳山區,22.6384156,120.3526825
3707010225,同心圓牙醫診所,07-7476951,高雄市鳳山區,高雄市鳳山區忠義里青年路二段18號,"牙醫一般科,",0,0,0,0,0,0,0,0,1,0,0,0,0,0,0,0,0,0,0,0,0,0,0,0,0,0,0,鳳山區,22.6281668,120.349324
3742012418,安德霖牙醫診所,7672942,高雄市鳳山區,高雄市鳳山區新富路446號,"牙醫一般科,",0,0,0,0,0,0,0,0,5,0,0,1,0,0,0,0,0,0,0,0,0,0,0,0,0,0,0,鳳山區,22.6129878,120.345855
3742010629,美加牙醫診所,07 7400746,高雄市鳳山區,高雄市鳳山區中山西路３８２－３號,"牙醫一般科,",0,0,0,0,0,0,0,0,1,0,0,0,0,0,0,0,0,0,0,0,0,0,0,0,0,0,0,鳳山區,22.6290979,120.3409221
3807010638,文龍中醫診所,07-7336985,高雄市鳳山區,高雄市鳳山區文龍東路160號1樓,"中醫一般科,",0,0,0,0,0,0,0,1,0,0,0,0,0,0,0,0,0,0,0,0,0,0,0,0,0,0,0,鳳山區,22.6412453,120.3705503
3542010090,江泰興耳鼻喉科診所,07-7422296,高雄市鳳山區,高雄市鳳山區澄清路９７號,"耳鼻喉科,",0,0,0,0,0,0,1,0,0,0,2,1,0,0,0,0,0,0,0,0,0,0,0,0,0,0,0,鳳山區,22.6290041,120.344279
3507011068,佑寧耳鼻喉專科診所,07-7102110,高雄市鳳山區,高雄市鳳山區建國路三段167號1樓,"耳鼻喉科,",0,0,0,0,0,0,1,0,0,4,0,3,1,0,0,0,0,0,0,0,0,0,0,0,0,0,0,鳳山區,22.6368825,120.3531909
3507011273,自然醫學美地診所,07-7353982,高雄市鳳山區,高雄市鳳山區文龍東路238之1號2樓,"放射診斷科,",0,0,0,0,0,0,1,0,0,0,0,1,0,0,0,0,0,0,0,0,0,0,0,0,0,0,0,鳳山區,22.6409536,120.3688021
3707010387,鳳山精品牙醫診所,,高雄市鳳山區,高雄市鳳山區中山西路105-1號1樓,"牙醫一般科,",0,0,0,0,0,0,0,0,2,0,0,0,0,0,0,0,0,0,0,0,0,0,0,0,0,0,0,鳳山區,22.6268163,120.3522348
3542013671,欣欣婦產科診所,07-7233629,高雄市鳳山區,高雄市鳳山區大明路63號,"婦產科,",0,0,0,0,0,0,1,0,0,0,0,1,0,0,0,0,0,0,0,0,0,0,0,0,0,0,0,鳳山區,22.608196,120.3416409
3742012356,文衡牙醫診所,7775989,高雄市鳳山區,高雄市鳳山區文衡路498號,"牙醫一般科,",0,0,0,0,0,0,0,0,5,0,0,0,0,0,0,0,0,0,0,0,0,0,0,0,0,0,0,鳳山區,22.6412124,120.3498107
3742012374,維康牙醫診所,7683388,高雄市鳳山區,"高雄市鳳山區五甲二路542之1號1,2樓","牙醫一般科,",0,0,0,0,0,0,0,0,4,0,0,0,0,0,0,0,0,0,0,0,0,0,0,0,0,0,0,鳳山區,22.596613,120.3333679
3742012383,新邁牙醫診所,7929999,高雄市鳳山區,高雄市鳳山區鳳甲路470之1號1、2樓,"牙醫一般科,",0,0,0,0,0,0,0,0,4,0,0,0,0,0,0,0,0,0,0,0,0,0,0,0,0,0,0,鳳山區,22.5968256,120.34608
3742012409,五甲銘仁牙醫診所,8215411,高雄市鳳山區,高雄市鳳山區鎮南街114號,"牙醫一般科,",0,0,0,0,0,0,0,0,1,0,0,0,0,0,0,0,0,0,0,0,0,0,0,0,0,0,0,鳳山區,22.5968519,120.3305199
3742012507,慶明牙醫診所,7687600,高雄市鳳山區,高雄市鳳山區自強二路119號,"牙醫一般科,",0,0,0,0,0,0,0,0,1,0,0,0,0,0,0,0,0,0,0,0,0,0,0,0,0,0,0,鳳山區,22.5960184,120.3272934
3742012525,文山微笑牙醫診所,7775006,高雄市鳳山區,高雄市鳳山區文衡路590號1、2樓,"牙醫一般科,",0,0,0,0,0,0,0,0,9,0,0,0,0,0,0,0,0,0,0,0,0,0,0,0,0,0,0,鳳山區,22.6418313,120.3468601
3742012543,侯牙醫診所,7400169,高雄市鳳山區,高雄市鳳山區光復路一段153號,"牙醫一般科,",0,0,0,0,0,0,0,0,1,0,0,0,0,0,0,0,0,0,0,0,0,0,0,0,0,0,0,鳳山區,22.6290474,120.3502684
3742012614,安田牙醫診所,7027233,高雄市鳳山區,高雄市鳳山區中山東路259.261號,"牙醫一般科,",0,0,0,0,0,0,0,0,1,0,0,0,0,0,0,0,0,0,0,0,0,0,0,0,0,0,0,鳳山區,22.6249786,120.3728079
3742010138,呂牙醫診所,07 8417388,高雄市鳳山區,高雄市鳳山區五甲二路６３９巷２８號,"牙醫一般科,",0,0,0,0,0,0,0,0,1,0,0,0,0,0,0,0,0,0,0,0,0,0,0,0,0,0,0,鳳山區,22.5932191,120.3309309
3742010192,廖牙醫診所,07 8415873,高雄市鳳山區,高雄市鳳山區龍成路4號,"牙醫一般科,",0,0,0,0,0,0,0,0,2,0,0,0,0,0,0,0,0,0,0,0,0,0,0,0,0,0,0,鳳山區,22.5949599,120.330207
3742010218,鴻文牙醫診所,07 8418753,高雄市鳳山區,高雄市鳳山區五甲三路１４６號一樓,"牙醫一般科,",0,0,0,0,0,0,0,0,1,0,0,0,0,0,0,0,0,0,0,0,0,0,0,0,0,0,0,鳳山區,22.591322,120.3253733
3742010263,周牙醫診所,07 7118525,高雄市鳳山區,高雄市鳳山區五甲二路２４９號,"牙醫一般科,",0,0,0,0,0,0,0,0,3,0,0,0,0,0,0,0,0,0,0,0,0,0,0,0,0,0,0,鳳山區,22.599971,120.3386282
3742010316,隆德牙醫診所,07 7413019,高雄市鳳山區,高雄市鳳山區中正路１１９號,"牙醫一般科,",0,0,0,0,0,0,0,0,2,0,0,0,0,0,0,0,0,0,0,0,0,0,0,0,0,0,0,鳳山區,22.627054,120.360007
3742010370,梁牙醫診所,07 7536669,高雄市鳳山區,高雄市鳳山區中崙二路４９９號,"牙醫一般科,",0,0,0,0,0,0,0,0,1,0,0,0,0,0,0,0,0,0,0,0,0,0,0,0,0,0,0,鳳山區,22.6017187,120.3532775
3742010405,名佳牙醫診所,07 7436745,高雄市鳳山區,高雄市鳳山區國富路56號,"牙醫一般科,",0,0,0,0,0,0,0,0,1,0,0,0,0,0,0,0,0,0,0,0,0,0,0,0,0,0,0,鳳山區,22.6160773,120.3491126
3742010414,福安堂牙醫診所,07 7037167,高雄市鳳山區,高雄市鳳山區中山東路３３７號,"牙醫一般科,",0,0,0,0,0,0,0,0,1,0,0,0,0,0,0,0,0,0,0,0,0,0,0,0,0,0,0,鳳山區,22.6269345,120.3767364
3742010432,優比牙醫診所,07 7466039,高雄市鳳山區,高雄市鳳山區鳳松路１１８之１號,"牙醫一般科,",0,0,0,0,0,0,0,0,1,0,0,0,0,0,0,0,0,0,0,0,0,0,0,0,0,0,0,鳳山區,22.6341944,120.3618065
3742010450,安德牙醫診所,07-7452123,高雄市鳳山區,高雄市鳳山區中山西路27號1-2樓,"牙醫一般科,",0,0,0,0,0,0,0,0,2,0,0,0,0,0,0,0,0,0,0,0,0,0,0,0,0,0,0,鳳山區,22.6263787,120.3542047
3742010478,上好牙醫診所,07 8211122,高雄市鳳山區,高雄市鳳山區五甲二路531號1-2樓,"牙醫一般科,",0,0,0,0,0,0,0,0,4,0,0,0,0,0,0,0,0,0,0,0,0,0,0,0,0,0,0,鳳山區,22.5959594,120.3323454
3742010487,德明牙醫診所,07 7462822,高雄市鳳山區,高雄市鳳山區南京路２９４號,"牙醫一般科,",0,0,0,0,0,0,0,0,1,0,0,0,0,0,0,0,0,0,0,0,0,0,0,0,0,0,0,鳳山區,22.6149346,120.3458933
3742010594,李耀庭牙醫診所,07 7619259,高雄市鳳山區,高雄市鳳山區保泰路２１２號,"牙醫一般科,",0,0,0,0,0,0,0,0,1,0,0,0,0,0,0,0,0,0,0,0,0,0,0,0,0,0,0,鳳山區,22.6009275,120.3313802
3742010601,愛生牙醫診所,07 7714205,高雄市鳳山區,高雄市鳳山區五甲二路３３１號,"牙醫一般科,",0,0,0,0,0,0,0,0,1,0,0,0,0,0,0,0,0,0,0,0,0,0,0,0,0,0,0,鳳山區,22.5985544,120.3367436
3742010638,波士頓牙醫診所,07 7437809,高雄市鳳山區,高雄市鳳山區中山路１４６－５號,"牙醫一般科,",0,0,0,0,0,0,0,0,1,0,0,0,0,0,0,0,0,0,0,0,0,0,0,0,0,0,0,鳳山區,22.625268,120.35697
3742010647,高華牙醫診所,07 8157593,高雄市鳳山區,高雄市鳳山區龍成路１６號,"牙醫一般科,",0,0,0,0,0,0,0,0,1,0,0,0,0,0,0,0,0,0,0,0,0,0,0,0,0,0,0,鳳山區,22.5953077,120.3298968
3742010816,明德牙醫診所,07 7102148,高雄市鳳山區,高雄市鳳山區文衡路３００號,"牙醫一般科,",0,0,0,0,0,0,0,0,1,0,0,0,0,0,0,0,0,0,0,0,0,0,0,0,0,0,0,鳳山區,22.6400728,120.3559538
3742010834,成大牙醫診所,07 7639733,高雄市鳳山區,高雄市鳳山區新富路６００號,"牙醫一般科,",0,0,0,0,0,0,0,0,1,0,0,0,0,0,0,0,0,0,0,0,0,0,0,0,0,0,0,鳳山區,22.6162097,120.349163
3742010843,瑞霖牙醫診所,07 7104819,高雄市鳳山區,高雄市鳳山區力行路15號,"牙醫一般科,",0,0,0,0,0,0,0,0,2,0,0,1,0,0,0,0,0,0,0,0,0,0,0,0,0,0,0,鳳山區,22.6393517,120.3650971
3742010852,洋洋牙醫診所,07 7104228,高雄市鳳山區,高雄市鳳山區青年路二段２０１之１號,"牙醫一般科,",0,0,0,0,0,0,0,0,1,0,0,0,0,0,0,0,0,0,0,0,0,0,0,0,0,0,0,鳳山區,22.6361984,120.3502712
3742010870,大東牙醫診所,07 7478544,高雄市鳳山區,高雄市鳳山區光遠路２４８號,"牙醫一般科,",0,0,0,0,0,0,0,0,2,0,0,1,0,0,0,0,0,0,0,0,0,0,0,0,0,0,0,鳳山區,22.6255174,120.3625597
3742012249,宏宇牙醫診所,7481129,高雄市鳳山區,高雄市鳳山區曹公路14~6號,"牙醫一般科,",0,0,0,0,0,0,0,0,2,0,0,0,0,0,0,0,0,0,0,0,0,0,0,0,0,0,0,鳳山區,22.628667,120.3572699
3742012258,恆美牙醫診所,7618995,高雄市鳳山區,高雄市鳳山區南華路188號,"西醫一般科,",0,0,0,0,0,0,0,0,2,0,0,0,0,0,0,0,0,0,0,0,0,0,0,0,0,0,0,鳳山區,22.6030387,120.3379712
3842012214,心香中醫診所,07-7808308,高雄市鳳山區,高雄市鳳山區八德路二段222號,"中醫一般科,",0,0,0,0,0,0,0,1,0,0,0,0,0,0,0,0,0,0,0,0,0,0,0,0,0,0,0,鳳山區,22.6457287,120.3529505
3742011028,曉博牙醫診所,07 7197319,高雄市鳳山區,高雄市鳳山區仁愛路8-3號,"牙醫一般科,",0,0,0,0,0,0,0,0,4,0,0,0,0,0,0,0,0,0,0,0,0,0,0,0,0,0,0,鳳山區,22.622836,120.3730701
3742010530,文化牙醫診所,07 7402967,高雄市鳳山區,高雄市鳳山區文化路１６０號,"牙醫一般科,",0,0,0,0,0,0,0,0,1,0,0,0,0,0,0,0,0,0,0,0,0,0,0,0,0,0,0,鳳山區,22.6347582,120.3507271
3842011931,立群中醫診所,07-7616908,高雄市鳳山區,高雄市鳳山區紅毛港路157號1樓,"中醫一般科,",0,0,0,0,0,0,0,2,0,0,0,1,1,0,0,0,0,0,0,0,0,0,0,0,0,0,0,鳳山區,22.5868851,120.3430069
3842011940,長榮中醫診所,8226874,高雄市鳳山區,高雄市鳳山區五甲二路566、568號,"中醫一般科,",0,0,0,0,0,0,0,4,0,0,0,1,3,0,0,0,0,0,0,0,0,0,0,0,0,0,0,鳳山區,22.5964118,120.3328837
3842012045,建安中醫診所,8311119,高雄市鳳山區,高雄市鳳山區五甲二路五五三號,"中醫一般科,",0,0,0,0,0,0,0,3,0,0,0,2,0,0,0,0,0,1,0,0,0,1,0,0,0,0,0,鳳山區,22.6010704,120.3403473
3842012250,甘草堂中醫診所,07-7806262,高雄市鳳山區,高雄市鳳山區文化西路1號及3號1、2樓,"中醫一般科,",0,0,0,0,0,0,0,3,0,1,0,3,2,0,0,0,0,0,0,0,0,0,0,0,0,0,0,鳳山區,22.6346756,120.3498124
3542014794,鄭紹茂診所,0932758565,高雄市鳳山區,高雄市鳳山區五甲二路186號,"家庭醫學科,",0,0,0,0,0,0,1,0,0,0,0,0,0,0,0,0,0,0,0,0,0,0,0,0,0,0,0,鳳山區,22.6017789,120.3408514
3542011211,台安診所,07-7410268,高雄市鳳山區,高雄市鳳山區雙慈街26號,"家庭醫學科,",0,0,0,0,0,0,1,0,0,1,0,1,0,0,0,0,0,0,0,0,0,0,0,0,0,0,0,鳳山區,22.6249851,120.3571539
3542011293,楊寶麟小兒科診所,07 7479092,高雄市鳳山區,高雄市鳳山區南京路３１２號,"兒科,",0,0,0,0,0,0,1,0,0,0,1,1,0,0,0,0,0,0,0,0,0,0,0,0,0,0,0,鳳山區,22.6152849,120.345904
3542011328,鳳德診所,07 7663893,高雄市鳳山區,高雄市鳳山區南京路153-21號,"西醫一般科,",0,0,0,0,0,0,2,0,0,1,2,1,1,0,0,0,0,0,0,0,0,0,0,0,0,0,0,鳳山區,22.6092348,120.3452172
3542012334,陳俊宏小兒科診所,07 7450066,高雄市鳳山區,高雄市鳳山區五甲一路８５號,"兒科,",0,0,0,0,0,0,1,0,0,1,0,0,0,0,0,0,0,0,0,0,0,0,0,0,0,0,0,鳳山區,22.6206184,120.3569167
3742010914,聖約翰牙醫聯合診所,07 7712844,高雄市鳳山區,高雄市鳳山區五甲二路101號1、２Ｆ,"牙醫一般科,",0,0,0,0,0,0,0,0,5,0,0,0,0,0,0,0,0,0,0,0,0,0,0,0,0,0,0,鳳山區,22.601853,120.341515
3742010923,唯真牙醫診所,07 7191817,高雄市鳳山區,高雄市鳳山區瑞順街129號,"牙醫一般科,",0,0,0,0,0,0,0,0,1,0,0,0,0,0,0,0,0,0,0,0,0,0,0,0,0,0,0,鳳山區,22.628765,120.368148
3742010987,新天地牙醫診所,07 7025789,高雄市鳳山區,高雄市鳳山區鳳林路１２１號,"牙醫一般科,",0,0,0,0,0,0,0,0,1,0,0,0,0,0,0,0,0,0,0,0,0,0,0,0,0,0,0,鳳山區,22.622476,120.376336
3807010110,佳聖中醫診所,07-7455605,高雄市鳳山區,高雄市鳳山區瑞興路58號1樓,"中醫一般科,",0,0,0,0,0,0,0,1,0,0,0,0,0,0,0,0,0,0,0,0,0,0,0,0,0,0,0,鳳山區,22.6248503,120.3683059
3707010136,文山亞太聯盟牙醫診所,07-7777320,高雄市鳳山區,高雄市鳳山區文衡路447號1樓,"牙醫一般科,",0,0,0,0,0,0,0,0,6,0,0,0,0,0,0,0,0,0,0,0,0,0,0,0,0,0,0,鳳山區,22.6407633,120.3481833
3842012232,順德中醫診所,07-7651256,高雄市鳳山區,高雄市鳳山區新富路292號1樓,"中醫一般科,",0,0,0,0,0,0,0,1,0,0,0,0,1,0,0,0,0,0,0,0,0,0,0,0,0,0,0,鳳山區,22.6126435,120.3418363
3742012678,康美牙醫診所,07-7777180,高雄市鳳山區,高雄市鳳山區八德路２７８號,"牙醫一般科,",0,0,0,0,0,0,0,0,2,0,0,0,0,0,0,0,0,0,0,0,0,0,0,0,0,0,0,鳳山區,22.6387796,120.3557294
3742010996,保羅牙醫診所,07 7637306,高雄市鳳山區,高雄市鳳山區維新路１１７號,"牙醫一般科,",0,0,0,0,0,0,0,0,1,0,0,0,0,0,0,0,0,0,0,0,0,0,0,0,0,0,0,鳳山區,22.6249238,120.3611566
3742012650,矯政牙醫診所,07-7427768,高雄市鳳山區,高雄市鳳山區中山東路78號1-2樓,"牙醫一般科,",0,0,0,0,0,0,0,0,3,0,0,0,0,0,0,0,0,0,0,0,0,0,0,0,0,0,0,鳳山區,22.6240286,120.3709337
3742010290,陳進財牙醫診所,07 7423966,高雄市鳳山區,高雄市鳳山區中山路６０巷８號,"牙醫一般科,",0,0,0,0,0,0,0,0,2,0,0,0,0,0,0,0,0,0,0,0,0,0,0,0,0,0,0,鳳山區,22.6218378,120.3603833
3742010352,時代牙醫診所,07 7420632,高雄市鳳山區,高雄市鳳山區光復路１７０號,"牙醫一般科,",0,0,0,0,0,0,0,0,2,0,0,0,0,0,0,0,0,0,0,0,0,0,0,0,0,0,0,鳳山區,22.6291388,120.3566787
3542010054,王楩楠內兒科診所,07-7460334,高雄市鳳山區,高雄市鳳山區光遠路82號,"內科,兒科,",0,0,0,0,0,0,1,0,0,0,1,0,0,0,0,0,0,0,0,0,0,0,0,0,0,0,0,鳳山區,22.6240934,120.366165
3542010590,信元內科精神科聯合診所,07-7765955,高雄市鳳山區,高雄市鳳山區建國路二段１５８號,"內科,精神科,",0,0,0,0,0,0,2,0,0,1,0,1,1,0,0,0,0,0,0,0,0,0,0,0,0,0,0,鳳山區,22.636096,120.359823
3542014776,快樂心靈診所,07-7686789,高雄市鳳山區,高雄市鳳山區五甲二路352-1號1樓,"精神科,",0,0,0,0,0,0,4,0,0,4,0,2,1,0,0,0,0,0,0,0,0,0,0,0,0,0,0,鳳山區,22.5994138,120.3374199
3542011846,李梓堯耳鼻喉科診所,07-7101995,高雄市鳳山區,高雄市鳳山區三民路１９２號,"耳鼻喉科,",0,0,0,0,0,0,1,0,0,0,0,2,1,0,0,0,0,0,0,0,0,0,0,0,0,0,0,鳳山區,22.6239214,120.3598447
3542012138,謝式修愛璽診所,07-7425566,高雄市鳳山區,高雄市鳳山區自由路240號,"婦產科,",0,0,0,0,0,0,1,0,0,0,0,1,1,0,0,0,0,0,0,0,0,0,0,0,0,0,0,鳳山區,22.6255121,120.3484332
3542014954,林昭哲診所,07-7633399,高雄市鳳山區,高雄市鳳山區新富路282號1樓,"西醫一般科,",0,0,0,0,0,0,1,0,0,1,0,4,0,0,0,0,0,0,0,0,0,0,0,0,0,0,0,鳳山區,22.6126818,120.341708
1142010518,高雄市立鳳山醫院（委託長庚醫療財團法人經營）,07-7418151,高雄市鳳山區,高雄市鳳山區經武路42號、42-1號,"家庭醫學科,內科,外科,兒科,婦產科,骨科,神經科,泌尿科,眼科,皮膚科,精神科,復健科,麻醉科,放射診斷科,解剖病理科,急診醫學科,牙醫一般科,中醫一般科,",1,0,0,0,0,0,54,4,7,18,0,193,6,0,0,10,0,3,3,14,0,0,0,5,0,1,3,鳳山區,22.6285279,120.3631986
3742012534,李昇斌牙醫診所,7469298,高雄市鳳山區,高雄市鳳山區中山路73號之2,"牙醫一般科,",0,0,0,0,0,0,0,0,1,0,0,0,0,0,0,0,0,0,0,0,0,0,0,0,0,0,0,鳳山區,22.6212762,120.360475
3707010029,晨光牙醫診所,07-7458525,高雄市鳳山區,高雄市鳳山區光遠路362號1-2樓,"牙醫一般科,",0,0,0,0,0,0,0,0,2,0,0,0,0,0,0,0,0,0,0,0,0,0,0,0,0,0,0,鳳山區,22.626212,120.358702
3542011766,寶生診所,07 7412128,高雄市鳳山區,高雄市鳳山區經武路２９５號,"西醫一般科,",0,0,0,0,0,0,1,0,0,1,0,0,0,0,0,0,0,0,0,0,0,0,0,0,0,0,0,鳳山區,22.6381362,120.364293
3842011780,聯安中醫診所,7466844,高雄市鳳山區,高雄市鳳山區新富路426之1號,"中醫一般科,",0,0,0,0,0,0,0,1,0,0,0,0,0,0,0,0,0,0,0,0,0,0,0,0,0,0,0,鳳山區,22.6128799,120.3450098
3542011006,呂忠勳診所,07 7173175,高雄市鳳山區,高雄市鳳山區南京路４０７號,"內科,",0,0,0,0,0,0,1,0,0,1,0,0,1,0,0,0,0,0,0,0,0,0,0,0,0,0,0,鳳山區,22.6150559,120.345375
3507010294,南成骨科診所,8214571,高雄市鳳山區,高雄市鳳山區南成街38號1樓、40號1樓、42號1樓,"骨科,",0,0,0,0,0,0,1,0,0,0,1,2,0,0,0,0,0,2,0,0,0,0,0,0,0,0,0,鳳山區,22.5969204,120.3318393
3507010623,嘉佑診所,0911006279,高雄市鳳山區,高雄市鳳山區五甲二路357號1樓,"內科,",0,0,0,0,0,0,1,0,0,2,0,2,0,0,0,0,0,0,0,0,0,0,0,0,0,0,0,鳳山區,22.5980414,120.3362626
3707010314,聖霖牙醫診所,07-7538888,高雄市鳳山區,高雄市鳳山區國泰路一段13號1-2樓,"牙醫一般科,",0,0,0,0,0,0,0,0,1,0,0,0,0,0,0,0,0,0,0,0,0,0,0,0,0,0,0,鳳山區,22.6142045,120.3600469
3842011833,太山中醫診所,07-7195587,高雄市鳳山區,高雄市鳳山區文龍路53號,"中醫一般科,",0,0,0,0,0,0,0,1,0,0,0,0,1,0,0,0,0,0,0,0,0,0,0,0,0,0,0,鳳山區,22.6435991,120.3490434
3742012365,仁恩牙醫診所,07-7776889,高雄市鳳山區,高雄市鳳山區文衡路552號,"牙醫一般科,",0,0,0,0,0,0,0,0,3,0,0,0,0,0,0,0,0,0,0,0,0,0,0,0,0,0,0,鳳山區,22.6415732,120.3478877
3542014025,潘明享骨科外科診所,07-7779999,高雄市鳳山區,高雄市鳳山區八德路二段16號1-2樓,"外科,骨科,",0,0,0,0,0,0,2,0,0,0,1,1,1,0,0,0,0,3,0,0,0,3,0,0,0,0,0,鳳山區,22.6427679,120.3550909
3542014687,家康診所,8118967,高雄市鳳山區,高雄市鳳山區五甲三路111號1樓,"家庭醫學科,",0,0,0,0,0,0,3,0,0,1,1,4,0,0,0,0,0,0,0,0,0,0,0,0,0,0,0,鳳山區,22.5914021,120.3260458
3507010687,鳳山元新眼科診所,07-7777845,高雄市鳳山區,高雄市鳳山區文龍東路776號1樓、夾層及3樓,"眼科,",0,0,0,0,5,3,3,0,0,2,0,4,3,0,0,0,0,0,0,0,0,0,0,0,0,0,0,鳳山區,22.6430855,120.3527971
3507010301,正宏耳鼻喉科診所,07-7451196,高雄市鳳山區,高雄市鳳山區中山東路563號1樓,"耳鼻喉科,",0,0,0,0,0,0,1,0,0,0,1,1,1,0,0,0,0,0,0,0,0,0,0,0,0,0,0,鳳山區,22.6293845,120.3817919
3807010718,鳳山凱璿中醫診所,07-7015555,高雄市鳳山區,高雄市鳳山區中山東路192巷58號1-2樓,"中醫一般科,",0,0,0,0,0,0,0,3,0,0,0,2,0,0,0,0,0,0,0,0,0,0,0,0,0,0,0,鳳山區,22.6249226,120.3775589
3542011828,趙大夫診所,07 7104010,高雄市鳳山區,高雄市鳳山區瑞竹路97號,"西醫一般科,",0,0,0,0,0,0,1,0,0,1,0,2,0,0,0,0,0,0,0,0,0,0,0,0,0,0,0,鳳山區,22.6263137,120.3673647
3542011382,凱旋診所,07 7637639,高雄市鳳山區,高雄市鳳山區凱旋路２６１號,"西醫一般科,",0,0,0,0,0,0,1,0,0,0,1,0,1,0,0,0,0,0,0,0,0,0,0,0,0,0,0,鳳山區,22.6132374,120.3492057
3807010647,大自在中醫診所,07-7107376,高雄市鳳山區,高雄市鳳山區王生明路150-1號1樓,"中醫一般科,",0,0,0,0,0,0,0,1,0,0,0,0,1,0,0,0,0,0,0,0,0,0,0,0,0,0,0,鳳山區,22.6190655,120.3625405
3742012669,富群牙醫診所,07-7993090,高雄市鳳山區,高雄市鳳山區文化路93號,"牙醫一般科,",0,0,0,0,0,0,0,0,1,0,0,0,0,0,0,0,0,0,0,0,0,0,0,0,0,0,0,鳳山區,22.6341438,120.3529658
3707010289,新禾美學牙醫診所,07-7969601,高雄市鳳山區,高雄市鳳山區過埤里過勇路105號1-2樓,"牙醫一般科,",0,0,0,0,0,0,0,0,4,0,0,0,0,0,0,0,0,0,0,0,0,0,0,0,0,0,0,鳳山區,22.5878481,120.3626456
3742011055,康庭牙醫診所,07 7166966,高雄市鳳山區,高雄市鳳山區鳳南路３０１號,"牙醫一般科,",0,0,0,0,0,0,0,0,2,0,0,0,0,0,0,0,0,0,0,0,0,0,0,0,0,0,0,鳳山區,22.6024267,120.3346119
3507010721,文山維康診所,07-7670933,高雄市鳳山區,高雄市鳳山區文衡路308號1-2樓,"內科,",0,0,0,0,0,0,1,0,0,0,0,4,0,0,0,0,0,0,0,0,0,0,0,0,0,0,0,鳳山區,22.6400914,120.3559243
3807010236,天意中醫診所,07-7638599,高雄市鳳山區,高雄市鳳山區瑞隆東路172號1樓,"中醫一般科,",0,0,0,0,0,0,0,1,0,0,0,0,0,0,0,0,0,0,0,0,0,0,0,0,0,0,0,鳳山區,22.6064659,120.3421447
3542010367,中心內兒科診所,07-7468153,高雄市鳳山區,高雄市鳳山區中正路118號1樓,"內科,兒科,",0,0,0,0,0,0,2,0,0,1,0,0,0,0,0,0,0,0,0,0,0,0,0,0,0,0,0,鳳山區,22.6271756,120.3602279
3742012623,青年牙醫診所,07-7996006,高雄市鳳山區,高雄市鳳山區青年路二段40號二樓,"牙醫一般科,",0,0,0,0,0,0,0,0,8,0,0,0,0,0,0,0,0,0,0,0,0,0,0,0,0,0,0,鳳山區,22.6290468,120.3494971
3742010227,名人牙醫診所,07 7428451,高雄市鳳山區,高雄市鳳山區中山路２１１號,"牙醫一般科,",0,0,0,0,0,0,0,0,2,0,0,0,0,0,0,0,0,0,0,0,0,0,0,0,0,0,0,鳳山區,22.6243664,120.3569211
3807010683,禾豐中醫診所,07-7407408,高雄市鳳山區,高雄市鳳山區鳳松路300號1樓,"中醫一般科,",0,0,0,0,0,0,0,2,0,0,0,1,0,0,0,0,0,0,0,0,0,0,0,0,0,0,0,鳳山區,22.6392318,120.3634125
3807010629,至和中醫診所,07-7630663,高雄市鳳山區,高雄市鳳山區國光里新富路389號1樓,"中醫一般科,",0,0,0,0,0,0,0,5,0,0,0,2,0,0,0,0,0,0,0,0,0,0,0,0,0,0,0,鳳山區,22.6163257,120.3484663
3507010374,朝仁耳鼻喉科診所,07-8110527,高雄市鳳山區,高雄市鳳山區自強二路172號1樓,"耳鼻喉科,",0,0,0,0,0,0,2,0,0,1,0,1,2,0,0,0,0,0,0,0,0,0,0,0,0,0,0,鳳山區,22.5970441,120.3272241
3507010463,莊秋同眼科診所,07-5549107,高雄市鳳山區,高雄市鳳山區保泰路152號1-2樓,"眼科,",0,0,0,0,0,0,1,0,0,0,0,2,0,0,0,0,0,0,0,0,0,0,0,0,0,0,0,鳳山區,22.6004139,120.3303567
3842010247,鄭阿緞針灸科中醫診所,07 7422863,高雄市鳳山區,高雄市鳳山區建國路二段216號1樓,"中醫一般科,",0,0,0,0,0,0,0,1,0,0,0,0,0,0,0,0,0,0,0,0,0,0,0,0,0,0,0,鳳山區,22.6363898,120.3582897
3842010069,順安堂中醫診所,07 8228822,高雄市鳳山區,高雄市鳳山區忠誠路９３號,"中醫一般科,",0,0,0,0,0,0,0,1,0,0,0,0,0,0,0,0,0,0,0,0,0,0,0,0,0,0,0,鳳山區,22.5948971,120.3259498
3842010130,慶昌中醫診所,07 8316538,高雄市鳳山區,高雄市鳳山區五甲三路82號,"中醫一般科,",0,0,0,0,0,0,0,2,0,0,0,0,0,0,0,0,0,0,0,0,0,0,0,0,0,0,0,鳳山區,22.592388,120.326641
3842010443,福安堂中醫診所,07-7037167,高雄市鳳山區,高雄市鳳山區中山東路３３９號,"中醫一般科,",0,0,0,0,0,0,0,1,0,0,0,1,0,0,0,0,0,0,0,0,0,0,0,0,0,0,0,鳳山區,22.6269577,120.3767558
3842010523,安心堂中醫診所,07-7404717,高雄市鳳山區,高雄市鳳山區文聖街９７號,"中醫一般科,",0,0,0,0,0,0,0,1,0,0,0,0,0,0,0,0,0,0,0,0,0,0,0,0,0,0,0,鳳山區,22.6293481,120.3523639
3842010603,建興中醫診所,07-7426916,高雄市鳳山區,高雄市鳳山區青年路二段188號,"中醫一般科,",0,0,0,0,0,0,0,2,0,0,0,0,0,0,0,0,0,0,0,0,0,0,0,0,0,0,0,鳳山區,22.6369182,120.3506705
3842011824,益群中醫診所,7271799,高雄市鳳山區,高雄市鳳山區武慶二路14之1號,"中醫一般科,",0,0,0,0,0,0,0,3,0,0,0,0,0,0,0,0,0,0,0,0,0,0,0,0,0,0,0,鳳山區,22.6104437,120.3327709
3842011860,順安中醫診所,07-7038585,高雄市鳳山區,高雄市鳳山區中山東路279號1樓,"中醫一般科,",0,0,0,0,0,0,0,2,0,0,0,1,1,0,0,0,0,0,0,0,0,0,0,0,0,0,0,鳳山區,22.6264562,120.375515
3842011888,仁澤中醫診所,07-7761105,高雄市鳳山區,高雄市鳳山區文中街78號1F,"中醫一般科,",0,0,0,0,0,0,0,1,0,0,0,0,0,0,0,0,0,0,0,0,0,0,0,0,0,0,0,鳳山區,22.6410444,120.35722
3807010218,鳳山濟世中醫診所,07-7195899,高雄市鳳山區,高雄市鳳山區中山東路72號1樓,"中醫一般科,",0,0,0,0,0,0,0,2,0,0,0,1,0,0,0,0,0,0,0,0,0,0,0,0,0,0,0,鳳山區,22.6239334,120.3707573
3707010305,星光牙醫診所,07-7322345,高雄市鳳山區,高雄市鳳山區文龍東路280號1樓,"牙醫一般科,",0,0,0,0,0,0,0,0,4,0,0,0,0,0,0,0,0,0,0,0,0,0,0,0,0,0,0,鳳山區,22.6408539,120.367398
3507011040,詠青診所,07-7109288,高雄市鳳山區,高雄市鳳山區青年路二段10號1-2樓,"內科,",0,0,0,0,0,0,3,0,0,0,0,7,0,0,0,0,0,0,0,0,0,0,0,0,0,0,0,鳳山區,22.6280168,120.3493069
3707010298,合悅美學牙醫診所,07-7010033,高雄市鳳山區,高雄市鳳山區勝利路51號1-2樓,"牙醫一般科,",0,0,0,0,0,0,0,0,3,0,0,1,0,0,0,0,0,0,0,0,0,0,0,0,0,0,0,鳳山區,22.6285108,120.3731202
3542011757,蔡崇毅診所,07 7021651,高雄市鳳山區,高雄市鳳山區仁愛路１２號,"家庭醫學科,",0,0,0,0,0,0,1,0,0,0,0,0,1,0,0,0,0,0,0,0,0,0,0,0,0,0,0,鳳山區,22.6229906,120.3730383
3507010150,文德診所,07-7805189,高雄市鳳山區,高雄市鳳山區文衡路301號1-2樓,"內科,",0,0,0,0,0,0,4,0,0,0,0,12,1,0,0,0,0,0,0,0,0,0,0,1,0,0,2,鳳山區,22.6401705,120.3535365
3707010252,幸儀牙醫診所,7130899,高雄市鳳山區,高雄市鳳山區武慶二路42號1-2樓,"牙醫一般科,",0,0,0,0,0,0,0,0,1,0,0,0,0,0,0,0,0,0,0,0,0,0,0,0,0,0,0,鳳山區,22.6109732,120.3330802
3842010381,福泉中醫診所,07-7474158,高雄市鳳山區,高雄市鳳山區光復路１７２號,"中醫一般科,",0,0,0,0,0,0,0,1,0,0,0,0,0,0,0,0,0,0,0,0,0,0,0,0,0,0,0,鳳山區,22.6291495,120.3566464
3507010212,歐洲診所,07-7996814,高雄市鳳山區,高雄市鳳山區光遠路91號1樓,"神經科,",0,0,0,0,0,0,1,0,0,0,0,2,1,0,0,0,0,0,0,0,0,0,0,0,0,0,0,鳳山區,22.6240115,120.3656794
3542020498,鄧明壽診所,07 6233316,高雄市岡山區,高雄市岡山區壽華路36號,"西醫一般科,",0,0,0,0,0,0,1,0,0,0,1,0,1,0,0,0,0,0,0,0,0,0,0,0,0,0,0,岡山區,22.7977772,120.2931281
1542020129,樂安醫院,07-6256791,高雄市岡山區,高雄市岡山區通校路３００號,"精神科,牙醫一般科,",0,0,0,0,0,0,2,0,1,4,0,20,2,0,0,1,0,0,2,1,0,0,1,0,0,2,1,岡山區,22.7923853,120.2811136
1542021171,惠川醫院,07-6229292,高雄市岡山區,高雄市岡山區岡山路92號,"內科,外科,復健科,",0,0,0,0,0,0,5,0,0,3,0,21,6,0,0,3,1,3,3,2,0,0,0,1,0,0,1,岡山區,22.7879803,120.2967518
3542020013,維心診所,07-6231829,高雄市岡山區,高雄市岡山區岡山路314號,"西醫一般科,",0,0,0,0,0,0,3,0,0,2,0,1,2,0,0,0,0,0,0,0,0,0,0,0,0,0,0,岡山區,22.7937082,120.2959519
3842021259,進安中醫診所,07-6295151,高雄市岡山區,高雄市岡山區岡山路5號1樓,"中醫一般科,",0,0,0,0,0,0,0,2,0,0,0,2,0,0,0,0,0,0,0,0,0,0,0,0,0,0,0,岡山區,22.7861238,120.2965413
3742021337,幸福牙醫診所,6261177,高雄市岡山區,高雄市岡山區民族路165號1樓,"牙醫一般科,",0,0,0,0,0,0,0,0,2,0,0,0,0,0,0,0,0,0,0,0,0,0,0,0,0,0,0,岡山區,22.7929087,120.285476
3507020030,岡山杏生婦產科診所,07-6297770,高雄市岡山區,高雄市岡山區岡山路63號1樓,"婦產科,",0,0,0,0,0,0,2,0,0,0,2,1,1,0,0,0,0,0,0,0,0,0,0,0,0,0,0,岡山區,22.7888691,120.2962196
3742020250,建安牙醫診所,07 6218939,高雄市岡山區,高雄市岡山區柳橋西路六二之一五、一六號,"牙醫一般科,",0,0,0,0,0,0,0,0,1,0,0,0,0,0,0,0,0,0,0,0,0,0,0,0,0,0,0,岡山區,22.790533,120.2875043
3742021319,第一牙醫診所,07-6234283,高雄市岡山區,高雄市岡山區岡山路347-1號2樓,"牙醫一般科,",0,0,0,0,0,0,0,0,4,0,0,0,0,0,0,0,0,0,0,0,0,0,0,0,0,0,0,岡山區,22.7976332,120.2952122
3742020072,鄭牙醫診所,07 6212359,高雄市岡山區,高雄市岡山區維仁路１５0號,"牙醫一般科,",0,0,0,0,0,0,0,0,1,0,0,0,0,0,0,0,0,0,0,0,0,0,0,0,0,0,0,岡山區,22.7957597,120.2931723
542020011,國軍高雄總醫院岡山分院附設民眾診療服務處,07-6252281,高雄市岡山區,高雄市岡山區大義二路１號,"家庭醫學科,內科,外科,兒科,婦產科,骨科,神經科,泌尿科,精神科,復健科,麻醉科,放射診斷科,整形外科,牙醫一般科,",2,0,1,0,0,0,33,0,3,11,0,115,8,0,0,8,0,4,4,8,0,1,0,1,0,2,2,岡山區,22.7891603,120.2862451
3542022312,三一診所,07-6258807,高雄市岡山區,高雄市岡山區柳橋西路ㄧ段13號1樓,"西醫一般科,",0,0,0,0,0,0,1,0,0,0,0,1,2,0,0,0,0,0,0,0,0,0,0,0,0,0,0,岡山區,22.790533,120.2875043
1542020058,劉嘉修醫院,07 6222836,高雄市岡山區,"高雄市岡山區岡山路４２８號1,2,3,6樓及 4 2 6號1,2,3樓","內科,外科,復健科,",0,0,0,0,0,0,5,0,0,3,0,11,3,1,0,1,0,3,2,1,0,3,1,0,0,0,1,岡山區,22.7957357,120.2957629
3507020049,永順診所,07-6218737,高雄市岡山區,高雄市岡山區岡山路72號1-2樓,"西醫一般科,",0,0,0,0,0,0,1,0,0,0,0,4,1,0,0,0,0,0,0,0,0,0,0,0,0,0,0,岡山區,22.7874921,120.2968845
3507020076,岡山大明眼科診所,07-6298333,高雄市岡山區,高雄市岡山區岡山路83號1-2樓,"眼科,",0,0,0,0,0,0,1,0,0,1,0,0,1,0,0,0,0,0,0,0,0,0,0,0,0,0,0,岡山區,22.7895247,120.296066
3707020016,康德牙醫診所,07-6295916,高雄市岡山區,高雄市岡山區岡山路71號1樓,"牙醫一般科,",0,0,0,0,0,0,0,0,1,0,0,0,0,0,0,0,0,0,0,0,0,0,0,0,0,0,0,岡山區,22.7890982,120.2960907
3807020018,仁祥中醫診所,07-6212158,高雄市岡山區,高雄市岡山區柳橋東路8號1樓,"中醫一般科,",0,0,0,0,0,0,0,1,0,0,0,1,0,0,0,0,0,0,0,0,0,0,0,0,0,0,0,岡山區,22.7911063,120.2958516
3507020012,吳中仁診所,07-6231223,高雄市岡山區,高雄市岡山區大德三路63號1樓,"西醫一般科,",0,0,0,0,0,0,2,0,0,2,0,2,3,0,0,0,0,0,0,0,0,0,0,0,0,0,0,岡山區,22.7889577,120.2989743
3507020067,都市麗人美醫診所,6221118,高雄市岡山區,高雄市岡山區碧紅里大德一路5-1號2-4樓,"西醫一般科,",0,0,0,0,0,0,1,0,0,0,0,2,0,0,0,0,0,0,0,0,0,0,0,0,0,0,0,岡山區,22.7965521,120.2969996
3842020109,聖家中醫診所,07 6211459,高雄市岡山區,高雄市岡山區岡山路171、173號,"中醫一般科,",0,0,0,0,0,0,0,1,0,0,0,1,2,0,0,0,0,0,0,0,0,0,0,0,0,0,0,岡山區,22.7911141,120.2959769
3842021151,慶安中醫診所,07-6218848,高雄市岡山區,高雄市岡山區岡燕路２４３號,"中醫一般科,",0,0,0,0,0,0,0,1,0,0,0,0,0,0,0,0,0,0,0,0,0,0,0,0,0,0,0,岡山區,22.7921532,120.3022366
3742021346,德源牙醫診所,(07)6231682,高雄市岡山區,"高雄市岡山區大德二路233號1,2樓","牙醫一般科,",0,0,0,0,0,0,0,0,1,0,0,0,0,0,0,0,0,0,0,0,0,0,0,0,0,0,0,岡山區,22.7893437,120.3025277
3507020183,岡山安心俊鴻診所,07-6297707,高雄市岡山區,高雄市岡山區岡山路81號1-2樓、87號1樓,"西醫一般科,",0,0,0,0,0,0,4,0,0,0,0,4,2,0,0,0,0,0,0,0,0,0,0,0,0,0,1,岡山區,22.7894951,120.2960552
3807020072,泓民中醫診所,07-6260233,高雄市岡山區,高雄市岡山區仁壽路36號1樓,"中醫一般科,",0,0,0,0,0,0,0,1,0,0,0,0,0,0,0,0,0,0,0,0,0,0,0,0,0,0,0,岡山區,22.7929505,120.2896552
3507020165,美之耀美醫診所,07-6250111,高雄市岡山區,高雄市岡山區仁壽路31號1-2樓,"外科,",0,0,0,0,0,0,1,0,0,0,0,2,0,0,0,0,0,0,0,0,0,0,0,0,0,0,0,岡山區,22.7927896,120.289752
3507020129,康群健康診所,07-6252576,高雄市岡山區,高雄市岡山區中山南路268號1樓,"內科,",0,0,0,0,0,0,2,0,0,0,0,7,3,0,0,0,0,0,0,0,0,0,0,0,0,0,0,岡山區,22.7873254,120.2996608
3707020043,張志任牙醫診所,07-6228666,高雄市岡山區,高雄市岡山區岡燕路55號1樓,"牙醫一般科,",0,0,0,0,0,0,0,0,1,0,0,0,0,0,0,0,0,0,0,0,0,0,0,0,0,0,0,岡山區,22.7927012,120.2976787
3807020054,民佑中醫診所,07-6227225,高雄市岡山區,高雄市岡山區民有路33號1-2樓,"中醫一般科,",0,0,0,0,0,0,0,7,0,0,0,2,1,0,0,0,0,0,0,0,0,0,0,0,0,0,0,岡山區,22.7920191,120.297953
3807020027,佛心中醫診所,07-6226767,高雄市岡山區,高雄市岡山區岡山路98號1-2樓,"中醫一般科,",0,0,0,0,0,0,0,1,0,0,0,1,0,0,0,0,0,0,0,0,0,0,0,0,0,0,0,岡山區,22.788235,120.2968116
3507020085,好誼內科診所,07-6222392,高雄市岡山區,高雄市岡山區維新東街3號1-4樓,"內科,",0,0,0,0,0,0,1,0,0,1,0,1,0,0,0,3,0,0,0,0,0,0,0,0,0,0,0,岡山區,22.7936333,120.2985168
3742020125,黃昇哲牙醫診所,07 6263868,高雄市岡山區,高雄市岡山區前峰路92之6號,"牙醫一般科,",0,0,0,0,0,0,0,0,1,0,0,0,0,0,0,0,0,0,0,0,0,0,0,0,0,0,0,岡山區,22.7956134,120.2876692
3542022090,黃昱璋泌尿科外科診所,6225358,高雄市岡山區,高雄市岡山區岡山路177號,"外科,泌尿科,",0,0,0,0,0,0,1,0,0,1,0,1,1,0,0,0,0,0,0,0,0,0,0,0,0,0,0,岡山區,22.7912358,120.295957
3807020063,和春堂中醫診所,07-6212823,高雄市岡山區,高雄市岡山區開元街57號1樓,"中醫一般科,",0,0,0,0,0,0,0,1,0,0,0,0,0,0,0,0,0,0,0,0,0,0,0,0,0,0,0,岡山區,22.7936904,120.2932137
3507020218,岡山晨安診所,07-6226111,高雄市岡山區,高雄市岡山區大德一路102號1樓,"內科,復健科,",0,0,0,0,0,0,3,0,0,2,0,1,0,0,0,0,0,2,0,0,0,0,0,0,0,0,0,岡山區,22.7969246,120.3026777
3707020061,永誠牙醫診所,07-6295678,高雄市岡山區,高雄市岡山區岡山路1號1-2樓,"牙醫一般科,",0,0,0,0,0,0,0,0,2,0,0,1,0,0,0,0,0,0,0,0,0,0,0,0,0,0,0,岡山區,22.7860832,120.2965441
3507020156,維馨診所,07-6217335,高雄市岡山區,高雄市岡山區維仁路81號1樓,"家庭醫學科,",0,0,0,0,0,0,3,0,0,0,0,1,0,0,0,0,0,0,0,0,0,0,0,0,0,0,0,岡山區,22.7934672,120.2921818
3707020070,科技牙醫診所,07-5573371,高雄市岡山區,高雄市岡山區公園東路39號1樓,"牙醫一般科,",0,0,0,0,0,0,0,0,1,0,0,0,0,0,0,0,0,0,0,0,0,0,0,0,0,0,0,岡山區,22.7994803,120.293174
3542022296,李漢傑皮膚科診所,6236488,高雄市岡山區,高雄市岡山區岡山路402號1樓,"皮膚科,",0,0,0,0,0,0,1,0,0,0,1,3,0,0,0,0,0,0,0,0,0,0,0,0,0,0,0,岡山區,22.7951544,120.295863
3542020130,黃耳鼻喉科診所,07 6230011,高雄市岡山區,高雄市岡山區岡山路３４７之１號,"家庭醫學科,耳鼻喉科,",0,0,0,0,0,0,2,0,0,1,0,2,0,0,0,0,0,0,0,0,0,0,0,0,0,0,0,岡山區,22.7977021,120.2951931
3707020089,岡山高竿牙藝牙醫診所,07-6295570,高雄市岡山區,高雄市岡山區河堤路二段126號1樓,"牙醫一般科,",0,0,0,0,0,0,0,0,3,0,0,0,0,0,0,0,0,0,0,0,0,0,0,0,0,0,0,岡山區,22.7857893,120.2957805
3742020278,柯文龍牙醫診所,07 6220321,高雄市岡山區,高雄市岡山區岡山路２６０號二樓,"牙醫一般科,",0,0,0,0,0,0,0,0,2,0,0,0,0,0,0,0,0,0,0,0,0,0,0,0,0,0,0,岡山區,22.7925389,120.2961735
3507020147,康誠診所,07-6217335,高雄市岡山區,高雄市岡山區維仁路81號1樓,"耳鼻喉科,",0,0,0,0,0,0,2,0,0,2,0,2,0,0,0,0,0,0,0,0,0,0,0,0,0,0,0,岡山區,22.7934672,120.2921818
3807020081,美好經典中醫診所,07-6266771,高雄市岡山區,高雄市岡山區前峰路57號1樓,"中醫一般科,",0,0,0,0,0,0,0,1,0,0,0,1,0,0,0,0,0,0,0,0,0,0,0,0,0,0,0,岡山區,22.7954907,120.2874441
3507020101,傅江輝骨外科診所,07-6295918,高雄市岡山區,高雄市岡山區岡山路67號1樓,"外科,骨科,",0,0,0,0,0,0,1,0,0,0,0,3,0,0,0,0,0,0,0,0,0,4,0,0,0,0,0,岡山區,22.7889005,120.2961845
3742020296,悅康牙醫診所,07-6222180,高雄市岡山區,高雄市岡山區中山北路２７號,"牙醫一般科,",0,0,0,0,0,0,0,0,4,0,0,0,0,0,0,0,0,0,0,0,0,0,0,0,0,0,0,岡山區,22.7933161,120.2987437
3542020630,天佑診所,07 6224457,高雄市岡山區,高雄市岡山區嘉興路１１７號,"西醫一般科,",0,0,0,0,0,0,1,0,0,0,1,0,0,0,0,0,0,0,0,0,0,0,0,0,0,0,0,岡山區,22.8186481,120.302153
3542022054,蘇俊明小兒科診所,6223189,高雄市岡山區,高雄市岡山區平和路200號,"兒科,",0,0,0,0,0,0,1,0,0,0,1,1,1,0,0,0,0,0,0,0,0,0,0,0,0,0,0,岡山區,22.7954601,120.2919482
3542022303,黃仲達診所,6297895,高雄市岡山區,高雄市岡山區柳橋東路9-2號1樓,"西醫一般科,",0,0,0,0,0,0,1,0,0,2,0,1,1,0,0,0,0,0,0,0,0,0,0,0,0,0,0,岡山區,22.7908362,120.2953941
3507020094,佳霖骨科專科診所,07-6217972,高雄市岡山區,高雄市岡山區大德二路165號1樓,"骨科,",0,0,0,0,0,0,1,0,0,1,1,5,0,0,0,0,0,6,0,0,0,1,0,0,0,0,0,岡山區,22.7894393,120.3040668
3707020052,岡山晨光牙醫診所,07-6229599,高雄市岡山區,高雄市岡山區壽天路11號1-3樓,"牙醫一般科,",0,0,0,0,0,0,0,0,1,0,0,0,0,0,0,0,0,0,0,0,0,0,0,0,0,0,0,岡山區,22.7962514,120.2949642
3842020083,莊進益中醫診所,07 6232519,高雄市岡山區,高雄市岡山區岡山里６鄰岡山路４９０號,"中醫一般科,",0,0,0,0,0,0,0,1,0,0,0,0,0,0,0,0,0,0,0,0,0,0,0,0,0,0,0,岡山區,22.7986225,120.2951904
3842021240,潤養中醫診所,(07)-6260185,高雄市岡山區,高雄市岡山區柳橋西路一段20號1F,"中醫一般科,",0,0,0,0,0,0,0,1,0,0,0,1,0,0,0,0,0,0,0,0,0,0,0,0,0,0,0,岡山區,22.7902398,120.2829685
1542020067,光雄長安醫院,07-6219156,高雄市岡山區,高雄市岡山區岡山路380之１號、378號、376號B1-7樓,"內科,外科,骨科,泌尿科,復健科,麻醉科,放射診斷科,",0,0,0,0,0,0,11,0,0,5,0,22,9,0,0,4,0,6,2,4,0,2,0,0,0,0,1,岡山區,22.7942527,120.2959555
3542020541,太原診所,07 6229889,高雄市岡山區,高雄市岡山區民生街７號,"西醫一般科,",0,0,0,0,0,0,1,0,0,0,1,0,0,0,0,0,0,0,0,0,0,0,0,0,0,0,0,岡山區,22.7941309,120.2946109
3507020138,岡山白璧美學診所,07-6235978,高雄市岡山區,高雄市岡山區壽天路27號1樓,"西醫一般科,",0,0,0,0,0,0,1,0,0,0,0,1,0,0,0,0,0,0,0,0,0,0,0,0,0,0,0,岡山區,22.7963807,120.293666
3742020214,華隆牙醫診所,07 6212760,高雄市岡山區,高雄市岡山區岡燕路９號,"牙醫一般科,",0,0,0,0,0,0,0,0,2,0,0,0,0,0,0,0,0,0,0,0,0,0,0,0,0,0,0,岡山區,22.7926895,120.296361
3542020309,劉志廷家庭醫學科診所,07 6228617,高雄市岡山區,高雄市岡山區維新路５１號,"家庭醫學科,兒科,",0,0,0,0,0,0,1,0,0,1,0,2,0,0,0,0,0,0,0,0,0,0,0,0,0,0,0,岡山區,22.7931878,120.2944592
942020019,高雄市立岡山醫院（委託秀傳醫療社團法人經營）,07-6222131,高雄市岡山區,高雄市岡山區壽天路12號,"家庭醫學科,內科,外科,骨科,神經科,泌尿科,耳鼻喉科,復健科,麻醉科,急診醫學科,牙醫一般科,中醫一般科,",0,0,0,0,0,0,24,3,12,10,0,103,19,0,0,9,0,6,4,7,0,1,0,2,0,0,3,岡山區,22.7967628,120.2945672
3542020416,高明眼科診所,07 6230935,高雄市岡山區,高雄市岡山區岡燕路17號1-2樓,"眼科,",0,0,0,0,1,0,1,0,0,1,0,1,0,0,0,0,0,0,0,0,0,0,0,0,0,0,0,岡山區,22.7928671,120.2966385
2342020019,高雄市岡山區衛生所,07-6212015,高雄市岡山區,高雄市岡山區公園路50號,"西醫一般科,",0,0,0,0,0,0,0,0,0,0,0,10,0,1,0,2,0,0,0,0,0,0,0,0,0,0,0,岡山區,22.7961195,120.2910096
3542022321,家佑診所,6211919,高雄市岡山區,高雄市岡山區大仁路109號1樓,"西醫一般科,",0,0,0,0,0,0,1,0,0,0,0,0,0,0,0,0,0,0,0,0,0,0,0,0,0,0,0,岡山區,22.805127,120.3016296
3742020205,康華牙醫診所,07 6218199,高雄市岡山區,高雄市岡山區大仁北路二三二號,"牙醫一般科,",0,0,0,0,0,0,0,0,1,0,0,0,0,0,0,0,0,0,0,0,0,0,0,0,0,0,0,岡山區,22.7977458,120.3022613
3507020174,安可診所,07-6217700,高雄市岡山區,高雄市岡山區中山北路65號1-3樓,"內科,",0,0,0,0,0,0,2,0,0,0,0,8,0,0,0,0,0,0,0,0,0,0,0,0,0,0,0,岡山區,22.7944636,120.2986015
3842020118,陳瑞聰中醫診所,07 6232675,高雄市岡山區,高雄市岡山區中山南路462號,"中醫一般科,",0,0,0,0,0,0,0,1,0,0,0,1,1,0,0,0,0,0,0,0,0,0,0,0,0,0,0,岡山區,22.790594,120.299511
3507020021,岡山家福耳鼻喉科診所,07-6219595,高雄市岡山區,高雄市岡山區岡山路312-1號1樓、312號1樓,"耳鼻喉科,",0,0,0,0,0,0,4,0,0,2,2,8,1,0,0,0,0,0,0,0,0,0,0,0,0,0,0,岡山區,22.7936797,120.2959576
3542020201,盧榮福內兒科診所,07 6261515,高雄市岡山區,高雄市岡山區仁壽路３９號,"內科,兒科,",0,0,0,0,0,0,1,0,0,1,0,1,1,0,0,0,0,0,0,0,0,0,0,0,0,0,0,岡山區,22.7926189,120.2896859
3542022232,仁仁診所,07 6224002,高雄市岡山區,高雄市岡山區岡山路２００號,"西醫一般科,",0,0,0,0,0,0,1,0,0,0,0,0,1,0,0,0,0,0,0,0,0,0,0,0,0,0,0,岡山區,22.7907711,120.2964624
3842020092,聖祐中醫診所,07 6259906,高雄市岡山區,高雄市岡山區壽華路118號,"中醫一般科,",0,0,0,0,0,0,0,1,0,0,0,0,0,0,0,0,0,0,0,0,0,0,0,0,0,0,0,岡山區,22.7998518,120.2926533
3542020738,吳宗慶診所,07 6229868,高雄市岡山區,高雄市岡山區中山北路４７號,"西醫一般科,",0,0,0,0,0,0,5,0,0,0,0,2,3,0,0,0,0,0,0,0,0,0,0,0,0,0,1,岡山區,22.7938471,120.2987381
3807020045,順心中醫診所,07-6219845,高雄市岡山區,高雄市岡山區民有路15號1樓,"中醫一般科,",0,0,0,0,0,0,0,1,0,0,0,0,0,0,0,0,0,0,0,0,0,0,0,0,0,0,0,岡山區,22.7921253,120.2985015
3542020809,許弘志眼科診所,07 6230011,高雄市岡山區,高雄市岡山區岡山路３４７之１號,"眼科,",0,0,0,0,1,1,1,0,0,0,0,1,0,0,0,0,0,0,0,0,0,0,0,0,0,0,0,岡山區,22.7977021,120.2951931
3542020792,蔡百豐內科家庭醫學科診所,07 6269221,高雄市岡山區,高雄市岡山區柳橋西路６２之１號,"家庭醫學科,內科,",0,0,0,0,0,0,1,0,0,1,0,2,1,0,0,0,0,0,0,0,0,0,0,0,0,0,0,岡山區,22.7907053,120.2874586
3507020110,艾麗美時尚診所,07-6248788,高雄市岡山區,高雄市岡山區岡山路201號2-4樓,"西醫一般科,",0,0,0,0,0,0,1,0,0,0,0,2,1,0,0,0,0,0,0,0,0,0,0,0,0,0,0,岡山區,22.7916994,120.2958316
3507020192,金禾美診所,07-6223028,高雄市岡山區,高雄市岡山區維仁路26號1-3樓,"婦產科,",0,0,0,0,0,0,1,0,0,1,0,3,1,0,0,0,0,0,0,0,0,0,0,0,0,0,0,岡山區,22.7926282,120.2925239
3707020034,康士美牙醫診所,07-6296078,高雄市岡山區,高雄市岡山區岡山路35號1樓,"牙醫一般科,",0,0,0,0,0,0,0,0,3,0,0,0,0,0,0,0,0,0,0,0,0,0,0,0,0,0,0,岡山區,22.7873547,120.2963863
3742020152,上德牙醫診所,07 6260111,高雄市岡山區,高雄市岡山區公園西路三段１６８號,"牙醫一般科,",0,0,0,0,0,0,0,0,1,0,0,0,0,0,0,0,0,0,0,0,0,0,0,0,0,0,0,岡山區,22.7922721,120.2845343
3542020434,王宏育診所,07-6228972  07-6228973,高雄市岡山區,高雄市岡山區岡山路２６０號,"內科,",0,0,0,0,0,0,1,0,0,0,1,0,2,0,0,0,0,0,0,0,0,0,0,0,0,0,0,岡山區,22.7925389,120.2961735
3742020189,國富牙醫診所,07 6227690,高雄市岡山區,高雄市岡山區中山南路470號,"牙醫一般科,",0,0,0,0,0,0,0,0,1,0,0,0,0,0,0,0,0,0,0,0,0,0,0,0,0,0,0,岡山區,22.7907141,120.2995488
3742020036,同寶牙醫診所,07 6214622,高雄市岡山區,高雄市岡山區平和路１３５號,"牙醫一般科,",0,0,0,0,0,0,0,0,1,0,0,0,0,0,0,0,0,0,0,0,0,0,0,0,0,0,0,岡山區,22.7946485,120.2931225
3742020045,佳辰牙醫診所,07 6252465,高雄市岡山區,高雄市岡山區後協路１４０號,"牙醫一般科,",0,0,0,0,0,0,0,0,1,0,0,0,0,0,0,0,0,0,0,0,0,0,0,0,0,0,0,岡山區,22.7859182,120.2815565
3742020063,劉牙醫診所,07 6229760,高雄市岡山區,高雄市岡山區維新路４９號,"牙醫一般科,",0,0,0,0,0,0,0,0,1,0,0,0,0,0,0,0,0,0,0,0,0,0,0,0,0,0,0,岡山區,22.7931831,120.2945315
3742020081,郭錫鍾牙醫診所,07 6264822,高雄市岡山區,高雄市岡山區仁壽路３４號,"牙醫一般科,",0,0,0,0,0,0,0,0,1,0,0,0,0,0,0,0,0,0,0,0,0,0,0,0,0,0,0,岡山區,22.7929616,120.2896849
3742020116,陳成泉牙醫診所,07 6216646,高雄市岡山區,高雄市岡山區大仁北路177號,"牙醫一般科,",0,0,0,0,0,0,0,0,1,0,0,0,0,0,0,0,0,0,0,0,0,0,0,0,0,0,0,岡山區,22.7990961,120.3022415
3742020241,喜美牙醫診所,07 6228966,高雄市岡山區,高雄市岡山區民有路６７號,"牙醫一般科,",0,0,0,0,0,0,0,0,2,0,0,0,0,0,0,0,0,0,0,0,0,0,0,0,0,0,0,岡山區,22.7918815,120.2972381
3742021300,康健牙醫診所,6250923,高雄市岡山區,高雄市岡山區壽華路32號,"牙醫一般科,",0,0,0,0,0,0,0,0,2,0,0,0,0,0,0,0,0,0,0,0,0,0,0,0,0,0,0,岡山區,22.7977401,120.2932009
3742021328,全家牙醫診所,07-6219819,高雄市岡山區,高雄市岡山區柳橋東路19號、19-1號1-3樓,"牙醫一般科,",0,0,0,0,0,0,0,0,11,0,0,0,0,0,0,0,0,0,0,0,0,0,0,0,0,0,0,岡山區,22.7909794,120.2937836
3842020029,協和中醫診所,07 6219595,高雄市岡山區,高雄市岡山區協和街４６號,"中醫一般科,",0,0,0,0,0,0,0,1,0,0,0,0,0,0,0,0,0,0,0,0,0,0,0,0,0,0,0,岡山區,22.7954349,120.2820594
3842020074,六合中醫診所,07 6252337,高雄市岡山區,高雄市岡山區岡山路197號,"中醫一般科,",0,0,0,0,0,0,0,2,0,0,0,0,0,0,0,0,0,0,0,0,0,0,0,0,0,0,0,岡山區,22.7916088,120.2959003
3842021188,德隆中醫診所,0918160061,高雄市岡山區,高雄市岡山區公園西路3段106號,"中醫一般科,",0,0,0,0,0,0,0,1,0,0,0,0,0,0,0,0,0,0,0,0,0,0,0,0,0,0,0,岡山區,22.7937042,120.2844023
3842021204,茂盛中醫診所,07-6259235,高雄市岡山區,高雄市岡山區前峰路39之8號1樓,"中醫一般科,",0,0,0,0,0,0,0,1,0,0,0,0,0,0,0,0,0,0,0,0,0,0,0,0,0,0,0,岡山區,22.7948318,120.2883595
3842021222,博聖中醫診所,07-6232702,高雄市岡山區,高雄市岡山區大德一路90號,"中醫一般科,",0,0,0,0,0,0,0,1,0,0,0,0,0,0,0,0,0,0,0,0,0,0,0,0,0,0,0,岡山區,22.7968659,120.3020196
3542020069,翁仁茂診所,07 6260039,高雄市岡山區,高雄市岡山區公園西路三段１２３號,"西醫一般科,",0,0,0,0,0,0,1,0,0,0,0,1,0,0,0,0,0,0,0,0,0,0,0,0,0,0,0,岡山區,22.7933359,120.2846666
3542020103,安生診所,07 6263759,高雄市岡山區,高雄市岡山區民族路５９號,"西醫一般科,",0,0,0,0,0,0,1,0,0,0,0,0,0,0,0,0,0,0,0,0,0,0,0,0,0,0,0,岡山區,22.7929554,120.2879502
3542020210,杜內兒科診所,07 6212273,高雄市岡山區,高雄市岡山區維新路２５號,"內科,兒科,",0,0,0,0,0,0,1,0,0,0,0,0,0,0,0,0,0,0,0,0,0,0,0,0,0,0,0,岡山區,22.7932458,120.2950773
3542020363,翁明清婦產科診所,07 6262997,高雄市岡山區,高雄市岡山區前峰路７３號,"婦產科,",0,0,0,0,0,0,2,0,0,1,0,0,1,0,0,0,0,0,0,0,0,0,0,0,0,0,0,岡山區,22.7957686,120.2869249
3542020461,得安診所,07 6257785,高雄市岡山區,高雄市岡山區前峰路90之2號1樓,"西醫一般科,",0,0,0,0,0,0,3,0,0,1,1,0,1,0,0,0,0,0,0,0,0,0,0,0,0,0,0,岡山區,22.795661,120.2879405
3542020532,蔣榮福診所,07 6228719,高雄市岡山區,高雄市岡山區中山南路452號,"內科,",0,0,0,0,0,0,2,0,0,1,0,9,3,0,0,0,0,0,0,0,0,0,0,0,0,0,0,岡山區,22.7903204,120.2995693
3542020550,簡耳鼻喉科診所,07 6220660,高雄市岡山區,高雄市岡山區壽華路４８號,"耳鼻喉科,",0,0,0,0,0,0,1,0,0,1,0,0,1,0,0,0,0,0,0,0,0,0,0,0,0,0,0,岡山區,22.7980134,120.293232
3542020596,皇明診所,07 6263592,高雄市岡山區,高雄市岡山區公園西路三段86之1號,"西醫一般科,",0,0,0,0,0,0,2,0,0,0,1,1,2,0,0,0,0,0,0,0,0,0,0,0,0,0,0,岡山區,22.7943598,120.284163
3542020649,呂朝英診所,07 6222512,高雄市岡山區,高雄市岡山區大仁北路一三二之三號,"西醫一般科,",0,0,0,0,0,0,1,0,0,1,0,2,0,0,0,0,0,0,0,0,0,0,0,0,0,0,0,岡山區,22.7977458,120.3022613
3542020676,黃子育診所,07 6210707,高雄市岡山區,高雄市岡山區前峰路39號,"家庭醫學科,外科,",0,0,0,0,0,0,2,0,0,0,1,1,0,0,0,0,0,0,0,0,0,0,0,0,0,0,0,岡山區,22.7946966,120.2885687
3542020756,黃明正耳鼻喉科診所,07 6230366,高雄市岡山區,高雄市岡山區民有路５６號,"耳鼻喉科,",0,0,0,0,0,0,1,0,0,1,0,1,1,0,0,0,0,0,0,0,0,0,0,0,0,0,0,岡山區,22.7923279,120.2971977
3542020872,平和婦產科診所,07-6240001,高雄市岡山區,高雄市岡山區平和東街22號1樓,"婦產科,",0,0,0,0,0,0,1,0,0,0,0,0,0,1,0,0,0,0,0,0,0,0,0,0,0,0,0,岡山區,22.7947275,120.2979652
3542021977,聖明診所,07-6295989,高雄市岡山區,高雄市岡山區岡山路91號1樓,"西醫一般科,",0,0,0,0,0,0,1,0,0,1,0,0,1,0,0,0,0,0,0,0,0,0,0,0,0,0,0,岡山區,22.7899852,120.2961031
3542022018,新惠生婦產科診所,6218827,高雄市岡山區,高雄市岡山區大德三路91號,"婦產科,",0,0,0,0,0,0,1,0,0,0,0,0,0,0,0,0,0,0,0,0,0,0,0,0,0,0,0,岡山區,22.7889209,120.2976932
3542022072,安祥皮膚科診所,6295859,高雄市岡山區,高雄市岡山區岡山路97號、99號1樓,"皮膚科,",0,0,0,0,0,0,3,0,0,2,0,4,2,0,0,0,0,0,0,0,0,0,0,0,0,0,0,岡山區,22.7900818,120.2960396
3542022107,岡山柳橋眼科診所,07-6246123,高雄市岡山區,高雄市岡山區柳橋東路19-2號,"眼科,",0,0,0,0,0,0,2,0,0,2,1,0,1,0,0,0,0,0,0,0,0,0,0,0,0,0,0,岡山區,22.7909001,120.2938539
3542022143,安泰診所,6233500,高雄市岡山區,高雄市岡山區岡山路434號4樓﹝5B﹞,"內科,",0,0,0,0,0,0,3,0,0,2,0,24,2,0,0,0,0,0,0,0,0,0,0,0,0,0,0,岡山區,22.7960105,120.2959666
3542022170,林怡仁診所,0958972211 - 6228926,高雄市岡山區,高雄市岡山區岡燕路320號,"西醫一般科,",0,0,0,0,0,0,1,0,0,2,0,3,1,0,0,0,0,0,0,0,0,0,0,0,0,0,0,岡山區,22.7913554,120.3060465
3542022198,辛辛診所,6222028,高雄市岡山區,高雄市岡山區民有路5號,"西醫一般科,",0,0,0,0,0,0,2,0,0,2,0,1,1,0,0,0,0,0,0,0,0,0,0,0,0,0,0,岡山區,22.7921501,120.298854
3542022205,莊志明診所,6298388,高雄市岡山區,高雄市岡山區柳橋東路15-1號1樓,"西醫一般科,",0,0,0,0,0,0,1,0,0,0,1,2,0,0,0,0,0,0,0,0,0,0,0,0,0,0,0,岡山區,22.790861,120.2944942
3542022223,岡山內科診所,07-6213371,高雄市岡山區,高雄市岡山區岡山路148號1、2樓,"內科,",0,0,0,0,0,0,2,0,0,1,0,15,1,0,0,0,0,0,0,0,0,0,0,0,0,0,0,岡山區,22.7893445,120.2965977
3542022250,陳國俊小兒科診所,07-6210353,高雄市岡山區,高雄市岡山區岡山路73號,"兒科,",0,0,0,0,0,0,5,0,0,3,0,1,3,0,0,0,0,0,0,0,0,0,0,0,0,0,0,岡山區,22.7892356,120.2960784
3542021986,新博愛診所,07-6215799,高雄市岡山區,高雄市岡山區大德一路15號1樓2樓,"骨科,",0,0,0,0,0,0,1,0,0,0,1,3,1,0,0,0,0,2,0,0,0,1,0,0,0,0,0,岡山區,22.7966306,120.2974008
3542022214,瑜楊診所,07-6233598   0937600587,高雄市岡山區,高雄市岡山區岡山路203號1樓,"內科,",0,0,0,0,0,0,1,0,0,0,1,1,0,0,0,0,0,0,0,0,0,0,0,0,0,0,0,岡山區,22.7917182,120.2958561
3542022269,仁康診所,07-6262988,高雄市岡山區,高雄市岡山區介壽西路173號1-2樓,"內科,",0,0,0,0,0,0,2,0,0,0,0,7,2,0,0,0,0,0,0,0,0,0,0,0,0,0,0,岡山區,22.7841572,120.2804031
3542020425,謝燕輝眼科診所,07 6229760,高雄市岡山區,高雄市岡山區維新路４９號1-２樓,"眼科,",0,0,0,0,0,0,1,0,0,0,1,0,1,0,0,0,0,0,0,0,0,0,0,0,0,0,0,岡山區,22.7931831,120.2945315
3542030038,溫朝貴診所,07 6612558,高雄市旗山區,高雄市旗山區東新街１８號,"家庭醫學科,",0,0,0,0,0,0,1,0,0,0,0,1,0,0,0,0,0,0,0,0,0,0,0,0,0,0,0,旗山區,22.8825797,120.4831386
1542030018,重安醫院,"07 6621783,6618471",高雄市旗山區,高雄市旗山區大仁街14、16、18、20、22、24、26號,"內科,外科,",0,0,0,0,0,0,3,0,0,2,0,6,2,0,0,0,0,1,0,2,0,1,0,0,0,0,0,旗山區,22.8829484,120.4848204
3707030058,松本牙醫診所,,高雄市旗山區,高雄市旗山區延平一路732號1-2樓,"牙醫一般科,",0,0,0,0,0,0,0,0,2,0,0,0,0,0,0,0,0,0,0,0,0,0,0,0,0,0,0,旗山區,22.8826328,120.4834539
3842030089,承德中醫診所,07 6611325,高雄市旗山區,高雄市旗山區延平一路２０５號1~2樓,"中醫一般科,",0,0,0,0,0,0,0,1,0,0,0,0,1,0,0,0,0,0,0,0,0,0,0,0,0,0,0,旗山區,22.8954291,120.4837839
3542031633,圓潭診所,6693669,高雄市旗山區,高雄市旗山區旗甲路二段348號,"西醫一般科,",0,0,0,0,0,0,1,0,0,1,0,0,1,0,0,0,0,0,0,0,0,0,0,0,0,0,0,旗山區,22.9223649,120.4973188
3542030476,王啟彰診所,07 6622089,高雄市旗山區,高雄市旗山區復新東街8號,"西醫一般科,",0,0,0,0,0,0,1,0,0,0,0,0,1,0,0,0,0,0,0,0,0,0,0,0,0,0,0,旗山區,22.8848353,120.4833605
3507030036,大政診所,07-6622588,高雄市旗山區,高雄市旗山區瑞吉里延平一路337號1樓,"西醫一般科,",0,0,0,0,0,0,2,0,0,0,0,4,0,0,0,0,0,0,0,0,0,0,0,0,0,0,0,旗山區,22.892365,120.4836464
3807030050,惠仁堂中醫診所,07-6621633,高雄市旗山區,高雄市旗山區大德里復新街11號1樓,"中醫一般科,",0,0,0,0,0,0,0,1,0,0,0,0,0,0,0,0,0,0,0,0,0,0,0,0,0,0,0,旗山區,22.8848511,120.4826895
3542031615,鴻源診所,0938880101,高雄市旗山區,高雄市旗山區延平一路200號1~3樓,"內科,",0,0,0,0,0,0,2,0,0,0,1,9,3,0,0,1,0,0,0,0,0,0,0,0,0,0,0,旗山區,22.8960099,120.4832518
3542030403,林博仁診所,07 6621000,高雄市旗山區,高雄市旗山區延平一路229號,"西醫一般科,",0,0,0,0,0,0,1,0,0,1,0,1,1,0,0,0,0,0,0,0,0,0,0,0,0,0,0,旗山區,22.8948985,120.4837006
3542031642,旗美眼科診所,661-1111,高雄市旗山區,高雄市旗山區延平一路743號1~2樓,"眼科,",0,0,0,0,0,0,1,0,0,1,0,1,0,0,0,0,0,0,0,0,0,0,0,0,0,0,0,旗山區,22.8826577,120.4837957
3507030116,聖星診所,662-2555,高雄市旗山區,高雄市旗山區大德里延平一路689號1-3樓,"家庭醫學科,神經科,",0,0,0,0,0,0,3,0,0,0,0,2,0,0,0,0,0,2,0,0,0,1,0,0,0,0,0,旗山區,22.8836742,120.4833173
3742030041,復新牙醫診所,,高雄市旗山區,高雄市旗山區復新街８５號,"牙醫一般科,",0,0,0,0,0,0,0,0,1,0,0,0,0,0,0,0,0,0,0,0,0,0,0,0,0,0,0,旗山區,22.8858021,120.480569
3842031111,一麟中醫診所,07_6627510   6627516,高雄市旗山區,高雄市旗山區延平一路145號,"中醫一般科,",0,0,0,0,0,0,0,1,0,0,0,2,0,0,0,0,0,0,0,0,0,0,0,0,0,0,0,旗山區,22.8974519,120.483723
3842031148,建宏中醫診所,6623323,高雄市旗山區,高雄市旗山區大同街21號,"中醫一般科,",0,0,0,0,0,0,0,1,0,0,0,0,1,0,0,0,0,0,0,0,0,0,0,0,0,0,0,旗山區,22.8835451,120.4841686
142030019,衛生福利部旗山醫院,07-6613811,高雄市旗山區,高雄市旗山區中學路６０號,"家庭醫學科,內科,外科,兒科,婦產科,骨科,神經科,神經外科,泌尿科,耳鼻喉科,眼科,皮膚科,精神科,復健科,麻醉科,放射診斷科,解剖病理科,急診醫學科,牙醫一般科,中醫一般科,",3,0,1,0,1,1,65,3,1,21,0,259,32,0,0,21,0,15,9,15,0,1,0,4,0,4,5,旗山區,22.8808284,120.482812
3507030072,嘉惠診所,07-662-1900,高雄市旗山區,高雄市旗山區大德里大同街42號1樓,"西醫一般科,",0,0,0,0,0,0,1,0,0,0,0,1,0,0,0,0,0,0,0,0,0,0,0,0,0,0,0,旗山區,22.8832116,120.4847979
3742030014,慶安牙醫診所,662-5330,高雄市旗山區,高雄市旗山區延平一路685號1樓,"牙醫一般科,",0,0,0,0,0,0,0,0,1,0,0,0,0,0,0,0,0,0,0,0,0,0,0,0,0,0,0,旗山區,22.8837545,120.4832249
3742030087,春福牙醫診所,662-2467,高雄市旗山區,高雄市旗山區中正路４０８號1樓,"牙醫一般科,",0,0,0,0,0,0,0,0,1,0,0,0,0,0,0,0,0,0,0,0,0,0,0,0,0,0,0,旗山區,22.8939165,120.4798333
3742030096,鍾牙醫診所,,高雄市旗山區,高雄市旗山區大同街１１號,"牙醫一般科,",0,0,0,0,0,0,0,0,1,0,0,0,0,0,0,0,0,0,0,0,0,0,0,0,0,0,0,旗山區,22.8836128,120.4840163
3742030121,微笑牙醫診所,076626866,高雄市旗山區,高雄市旗山區中山路187號1樓,"牙醫一般科,",0,0,0,0,0,0,0,0,1,0,0,0,0,0,0,0,0,0,0,0,0,0,0,0,0,0,0,旗山區,22.8901178,120.4820454
3742031146,正元牙醫診所,6629698,高雄市旗山區,高雄市旗山區華中街28號,"牙醫一般科,",0,0,0,0,0,0,0,0,1,0,0,0,0,0,0,0,0,0,0,0,0,0,0,0,0,0,0,旗山區,22.8881855,120.4846567
3842030043,王鴻武中醫診所,6612812,高雄市旗山區,高雄市旗山區延平一路５17號,"中醫一般科,",0,0,0,0,0,0,0,1,0,0,0,0,0,0,0,0,0,0,0,0,0,0,0,0,0,0,0,旗山區,22.8876857,120.4832563
3542030556,仁厚診所,076613515,高雄市旗山區,高雄市旗山區延平一路１３７號,"家庭醫學科,",0,0,0,0,0,0,1,0,0,1,0,0,0,0,0,0,0,0,0,0,0,0,0,0,0,0,0,旗山區,22.8977791,120.4836496
3542031606,周大雅診所,6625132,高雄市旗山區,高雄市旗山區延平一路562號,"家庭醫學科,",0,0,0,0,0,0,1,0,0,1,0,1,0,0,0,0,0,0,0,0,0,0,0,0,0,0,0,旗山區,22.8877936,120.4830785
3542031704,信安小兒科診所,662-7007,高雄市旗山區,高雄市旗山區延平一路228之8號1樓,"兒科,",0,0,0,0,0,0,1,0,0,2,0,1,1,0,0,0,0,0,0,0,0,0,0,0,0,0,0,旗山區,22.8949948,120.4831699
3542031722,芳民診所,662-2355,高雄市旗山區,高雄市旗山區德昌路16號1~2樓,"內科,",0,0,0,0,0,0,3,0,0,1,0,15,3,0,0,0,0,0,0,0,0,0,0,0,0,0,0,旗山區,22.8832768,120.4826404
3542031740,鄭耳鼻喉科診所,6627165,高雄市旗山區,高雄市旗山區東平里延平二路43號1樓,"耳鼻喉科,",0,0,0,0,0,0,1,0,0,0,1,0,0,0,0,0,0,0,0,0,0,0,0,0,0,0,0,旗山區,22.8820996,120.4933794
3542030494,李本源診所,07 662-1826,高雄市旗山區,高雄市旗山區大德里東新街４0號1樓,"西醫一般科,",0,0,0,0,0,0,1,0,0,0,0,0,0,0,0,0,0,0,0,0,0,0,0,0,0,0,0,旗山區,22.8821123,120.4829168
3542030243,鄭小兒科診所,07 6617842,高雄市旗山區,高雄市旗山區中山路１８６號,"兒科,",0,0,0,0,0,0,1,0,0,1,0,0,0,0,0,0,0,0,0,0,0,0,0,0,0,0,0,旗山區,22.890775,120.4821939
3542031795,順安診所,07-6693663,高雄市旗山區,高雄市旗山區旗甲路二段181號1樓,"西醫一般科,",0,0,0,0,0,0,1,0,0,0,0,0,0,0,0,0,0,0,0,0,0,0,0,0,0,0,0,旗山區,22.9191926,120.4956006
1542030116,溪洲醫院,07-6621985,高雄市旗山區,高雄市旗山區延平一路４１２、408號,"內科,兒科,骨科,神經科,復健科,",2,0,0,0,0,0,7,0,0,2,0,24,6,0,0,1,0,7,2,1,0,0,2,2,0,0,1,旗山區,22.8928193,120.4832034
3742031137,欣新牙醫診所,5819606  662-9339,高雄市旗山區,高雄市旗山區延平一路224號,"牙醫一般科,",0,0,0,0,0,0,0,0,1,0,0,0,0,0,0,0,0,0,0,0,0,0,0,0,0,0,0,旗山區,22.8953971,120.4832522
3542030332,楊皮膚科診所,07 6625322,高雄市旗山區,高雄市旗山區延平一路６７９號,"皮膚科,",0,0,0,0,0,0,2,0,0,2,0,3,0,0,0,0,0,0,0,0,0,0,0,0,0,0,0,旗山區,22.8838701,120.4832128
3542031820,許銘誠診所,07-6611166,高雄市旗山區,高雄市旗山區延平一路542號1樓,"西醫一般科,",0,0,0,0,0,0,1,0,0,0,0,0,0,0,0,0,0,0,0,0,0,0,0,0,0,0,0,旗山區,22.8885448,120.483074
3807030032,慈悅中醫診所,661-1025,高雄市旗山區,高雄市旗山區瑞吉里民權三街19號1樓,"中醫一般科,",0,0,0,0,0,0,0,2,0,0,0,0,0,0,0,0,0,0,0,0,0,0,0,0,0,0,0,旗山區,22.8918214,120.4843332
3542031731,王致瑋小兒科診所,6629922,高雄市旗山區,高雄市旗山區延平一路677號1樓,"兒科,",0,0,0,0,0,0,2,0,0,0,2,3,1,0,0,0,0,0,0,0,0,0,0,0,0,0,0,旗山區,22.8838955,120.4832177
3707030012,翰廷牙醫診所,07-6614026,高雄市旗山區,高雄市旗山區中山路14號1樓,"牙醫一般科,",0,0,0,0,0,0,0,0,1,0,0,0,0,0,0,0,0,0,0,0,0,0,0,0,0,0,0,旗山區,22.8851941,120.4821068
3707030030,慈悅牙醫診所,(07)661-1026,高雄市旗山區,高雄市旗山區瑞吉里民權三街19號2樓,"牙醫一般科,",0,0,0,0,0,0,0,0,1,0,0,0,0,0,0,0,0,0,0,0,0,0,0,0,0,0,0,旗山區,22.8918214,120.4843332
3707030049,怡加牙醫診所,07-669-2828,高雄市旗山區,高雄市旗山區旗甲路二段99號1樓,"牙醫一般科,",0,0,0,0,0,0,0,0,1,0,0,0,0,0,0,0,0,0,0,0,0,0,0,0,0,0,0,旗山區,22.9176766,120.4949483
3507030063,宏安診所,661-1186,高雄市旗山區,高雄市旗山區大德里至誠巷19號1樓,"西醫一般科,",0,0,0,0,0,0,2,0,0,1,0,0,1,0,0,0,0,0,0,0,0,0,0,0,0,0,0,旗山區,22.8839005,120.4842471
3507030090,格林耳鼻喉科診所,(07)662-3958,高雄市旗山區,高雄市旗山區大德里大同街39號1樓,"耳鼻喉科,",0,0,0,0,0,0,1,0,0,1,0,2,0,0,0,0,0,0,0,0,0,0,0,0,0,0,0,旗山區,22.8835784,120.4851163
3542030207,陳眼科診所,661-8866,高雄市旗山區,高雄市旗山區大同街７號,"眼科,",0,0,0,0,0,0,1,0,0,0,1,0,1,0,0,0,0,0,0,0,0,0,0,0,0,0,0,旗山區,22.883611,120.483821
3507030134,仁耀皮膚科診所,,高雄市旗山區,高雄市旗山區大德里大同街17-1號1樓,"皮膚科,",0,0,0,0,0,0,1,0,0,1,0,2,0,0,0,0,0,0,0,0,0,0,0,0,0,0,0,旗山區,22.8835388,120.4841714
3542030547,民愛診所,076617221,高雄市旗山區,高雄市旗山區大德里復新街13號、１５號,"婦產科,",0,0,0,0,0,0,1,0,0,1,0,0,0,1,0,0,0,0,0,0,0,0,0,0,0,0,0,旗山區,22.8848504,120.4826424
3507030054,欣明精神科診所,662-7802,高雄市旗山區,高雄市旗山區大德里延平一路660號1樓,"精神科,",0,0,0,0,0,0,2,0,0,2,0,2,0,0,0,0,0,0,0,0,0,0,0,0,0,0,0,旗山區,22.885255,120.4829607
2342030015,高雄市旗山區衛生所,07 6612054,高雄市旗山區,高雄市旗山區湄洲里中正路197號,"西醫一般科,",0,0,0,0,0,0,0,0,0,0,0,6,0,0,0,0,0,0,0,0,0,0,0,0,0,0,0,旗山區,22.8901288,120.4799099
3507030107,益祥診所,07-662-8008,高雄市旗山區,高雄市旗山區永和里延平一路175號1~4樓,"內科,",0,0,0,0,0,0,2,0,0,0,0,6,1,0,0,1,0,0,0,0,0,0,0,0,0,0,0,旗山區,22.8965155,120.4837859
3507030018,大元診所,07-6612100,高雄市旗山區,高雄市旗山區大德里大同街13-1號,"西醫一般科,",0,0,0,0,0,0,1,0,0,0,0,3,0,0,0,0,0,0,0,0,0,0,0,0,0,0,1,旗山區,22.8836517,120.4841168
3507030125,宋俊輝診所,07-6626336,高雄市旗山區,高雄市旗山區中正路232號1樓,"西醫一般科,",0,0,0,0,0,0,1,0,0,1,0,2,2,0,0,0,0,0,0,0,0,0,0,0,0,0,0,旗山區,22.89065,120.4802632
3807040010,佳美中醫診所,07-6810860,高雄市美濃區,高雄市美濃區中山路一段10號,"中醫一般科,",0,0,0,0,0,0,0,1,0,0,0,0,0,0,0,0,0,0,0,0,0,0,0,0,0,0,0,美濃區,22.9017647,120.5410207
3742041133,美濃牙醫診所,6820599    3865797,高雄市美濃區,高雄市美濃區中正路二段二四七號,"西醫一般科,",0,0,0,0,0,0,0,0,2,0,0,1,1,0,0,0,0,0,0,0,0,0,0,0,0,0,0,美濃區,22.8793008,120.535393
3542040187,李樹榮診所,07 6812189,高雄市美濃區,高雄市美濃區中正路一段一七號,"家庭醫學科,婦產科,",0,0,0,0,0,0,1,0,0,0,1,1,0,0,0,0,0,0,0,0,0,0,0,0,0,0,0,美濃區,22.8983094,120.5426059
3542040089,吳文豪診所,,高雄市美濃區,高雄市美濃區永安路２５７號,"西醫一般科,",0,0,0,0,0,0,1,0,0,0,1,0,1,0,0,0,0,0,0,0,0,0,0,0,0,0,0,美濃區,22.89912,120.5409786
2342040011,高雄市美濃區衛生所,07 6812064,高雄市美濃區,高雄市美濃區美中路二四六號,"西醫一般科,",0,0,0,0,0,0,1,0,0,1,0,6,1,1,0,0,0,0,0,0,0,0,0,0,0,0,0,美濃區,22.8969094,120.5423844
3507040023,龍肚診所,07-68511183,高雄市美濃區,高雄市美濃區中華路11-1號1樓,"外科,",0,0,0,0,0,0,1,0,0,1,0,0,3,0,0,0,0,0,0,0,0,0,0,0,0,0,0,美濃區,22.8798968,120.5628858
3542040061,永明診所,07 6812803,高雄市美濃區,高雄市美濃區永安路２１５號,"西醫一般科,",0,0,0,0,0,0,1,0,0,1,0,1,0,0,0,0,0,0,0,0,0,0,0,0,0,0,0,美濃區,22.899604,120.5424228
1542040050,三聖醫院,07-6818495,高雄市美濃區,高雄市美濃區合和里合和路56號及58號，成功路182-2號,"家庭醫學科,骨科,復健科,",0,0,0,0,0,0,2,0,0,2,0,4,4,0,0,0,0,4,0,1,0,1,0,0,0,0,0,美濃區,22.8939844,120.5480596
3507040032,高美診所,07-6815566,高雄市美濃區,高雄市美濃區成功路139號4、5、6樓,"內科,",0,0,0,0,0,0,2,0,0,0,0,11,2,0,0,0,0,0,0,0,0,0,0,0,0,0,0,美濃區,22.6766999,120.359662
3507040041,祐美診所,07-6813777,高雄市美濃區,高雄市美濃區成功路277號1樓,"內科,",0,0,0,0,0,0,1,0,0,0,0,3,1,0,0,0,0,0,0,0,0,0,0,0,0,0,0,美濃區,22.6760393,120.3629278
3707040018,大于牙醫診所,07-6810238,高雄市美濃區,高雄市美濃區中正路一段5號1樓,"牙醫一般科,",0,0,0,0,0,0,0,0,1,0,0,0,0,0,0,0,0,0,0,0,0,0,0,0,0,0,0,美濃區,22.9090821,120.2268589
3742041142,中山牙醫診所,07 6819139,高雄市美濃區,高雄市美濃區中正路一段２４號,"牙醫一般科,",0,0,0,0,0,0,0,0,1,0,0,0,0,0,0,0,0,0,0,0,0,0,0,0,0,0,0,美濃區,22.9096105,120.2263135
3842040021,連康內傷科中醫診所,07 6815322,高雄市美濃區,高雄市美濃區泰安路13號,"中醫一般科,",0,0,0,0,0,0,0,1,0,0,0,0,0,0,0,0,0,0,0,0,0,0,0,0,0,0,0,美濃區,22.9019313,120.5379665
3842041046,群明中醫診所,(07)6820208,高雄市美濃區,高雄市美濃區美中路251號,"中醫一般科,",0,0,0,0,0,0,0,2,0,1,0,0,0,0,0,0,0,0,0,0,0,0,0,0,0,0,0,美濃區,22.8951436,120.542651
3542040178,霑龍診所,076812593,高雄市美濃區,高雄市美濃區泰安路１５號,"家庭醫學科,內科,",0,0,0,0,0,0,1,0,0,0,0,0,1,0,0,0,0,0,0,0,0,0,0,0,0,0,0,美濃區,22.9019311,120.5379627
3542040169,小太陽診所,07 6812332,高雄市美濃區,高雄市美濃區成功路219-1號,"家庭醫學科,",0,0,0,0,0,0,1,0,0,0,0,2,1,0,0,0,0,0,0,0,0,0,0,0,0,0,0,美濃區,22.8928495,120.5493264
3807040029,萬安中醫診所,07-6811768,高雄市美濃區,高雄市美濃區成功路129號,"中醫一般科,",0,0,0,0,0,0,0,1,0,0,0,1,0,0,0,0,0,0,0,0,0,0,0,0,0,0,0,美濃區,22.885385,120.5509358
3542050343,楊文昌診所,07 6436411,高雄市林園區,高雄市林園區東林西路２８１號,"西醫一般科,",0,0,0,0,0,0,1,0,0,0,1,0,0,0,0,0,0,0,0,0,0,0,0,0,0,0,0,林園區,22.5031054,120.3895572
3542051975,加安診所,07-6433136,高雄市林園區,高雄市林園區忠孝西路61號,"西醫一般科,",0,0,0,0,0,0,1,0,0,0,0,3,0,0,0,0,0,0,0,0,0,0,0,0,0,0,0,林園區,22.5069222,120.3925118
2342050017,高雄市林園區衛生所,07 6412404,高雄市林園區,高雄市林園區林園北路186號,"西醫一般科,",0,0,0,0,0,0,1,0,0,0,0,8,0,0,0,0,0,0,0,0,0,0,0,0,0,0,0,林園區,22.5075816,120.3951615
3842050036,陽明中醫診所,07 6413690,高雄市林園區,高雄市林園區信義路１２號,"中醫一般科,",0,0,0,0,0,0,0,2,0,0,0,0,1,0,0,0,0,0,0,0,0,0,0,0,0,0,0,林園區,22.5076819,120.3919239
3842051060,福昇中醫診所,6423884,高雄市林園區,高雄市林園區仁愛里東林西路122號,"中醫一般科,",0,0,0,0,0,0,0,1,0,0,0,0,1,0,0,0,0,0,0,0,0,0,0,0,0,0,0,林園區,22.5037053,120.3925582
3842050054,隆德中醫診所,07 6419667,高雄市林園區,高雄市林園區東林東路２５號,"中醫一般科,",0,0,0,0,0,0,0,4,0,0,0,1,0,0,0,0,0,0,0,0,0,0,0,0,0,0,0,林園區,22.5034486,120.3964658
3742051193,澄品牙醫診所,07-6430567,高雄市林園區,高雄市林園區林園北路384號,"牙醫一般科,",0,0,0,0,0,0,0,0,1,0,0,0,0,0,0,0,0,0,0,0,0,0,0,0,0,0,0,林園區,22.5128628,120.3950424
3742050025,林園吳牙醫診所,076419887,高雄市林園區,高雄市林園區文聖街10號,"牙醫一般科,",0,0,0,0,0,0,0,0,1,0,0,0,0,0,0,0,0,0,0,0,0,0,0,0,0,0,0,林園區,22.5035858,120.3897769
3542050521,賴守志診所,07 6451888,高雄市林園區,高雄市林園區鳳林路二段１２３號,"西醫一般科,",0,0,0,0,0,0,1,0,0,1,0,0,1,0,0,0,0,0,0,0,0,0,0,0,0,0,0,林園區,22.5096943,120.3957792
3742050089,劍豪牙醫診所,07 6451361,高雄市林園區,高雄市林園區潭頭路１７８號,"牙醫一般科,",0,0,0,0,0,0,0,0,1,0,0,0,0,0,0,0,0,0,0,0,0,0,0,0,0,0,0,林園區,22.5243057,120.396782
3742050123,麟翔牙醫診所,07 6430650,高雄市林園區,高雄市林園區林園里文化街166-2號,"牙醫一般科,",0,0,0,0,0,0,0,0,3,0,0,0,0,0,0,0,0,0,0,0,0,0,0,0,0,0,0,林園區,22.5060712,120.3937847
3542050361,黃英豪診所,07 6412134,高雄市林園區,高雄市林園區林園北路１８８號,"西醫一般科,",0,0,0,0,0,0,1,0,0,0,0,2,0,0,0,0,0,0,0,0,0,0,0,0,0,0,0,林園區,22.507702,120.3949814
3542050656,聖岳骨科外科診所,07 6439199,高雄市林園區,高雄市林園區林園北路304號,"外科,骨科,",0,0,0,0,0,0,2,0,0,1,0,1,0,0,0,0,0,1,0,0,0,3,0,0,0,0,0,林園區,22.5104999,120.3949159
3542051804,仁德耳鼻喉科診所,07-6412262,高雄市林園區,高雄市林園區東林西路166號,"耳鼻喉科,",0,0,0,0,0,0,1,0,0,1,0,1,0,0,0,0,0,0,0,0,0,0,0,0,0,0,0,林園區,22.5033234,120.391242
3542051859,新視界眼科診所,6466119,高雄市林園區,高雄市林園區林園北路284號,"眼科,",0,0,0,0,0,1,1,0,0,0,0,1,0,0,0,0,0,0,0,0,0,0,0,0,0,0,0,林園區,22.510053,120.3948
3542051911,正宜診所,6413300,高雄市林園區,高雄市林園區東林西路160號1樓,"西醫一般科,",0,0,0,0,0,0,2,0,0,1,0,0,0,0,0,0,0,0,0,0,0,0,0,0,0,0,0,林園區,22.5033744,120.39138
3542051920,長泰診所,07-6452776,高雄市林園區,高雄市林園區王公路483號,"家庭醫學科,",0,0,0,0,0,0,1,0,0,0,0,2,0,0,0,0,0,0,0,0,0,0,0,0,0,0,0,林園區,22.505651,120.3851275
3542050638,梅振英耳鼻喉科診所,07 6438553,高雄市林園區,高雄市林園區林園北路２２６號,"耳鼻喉科,",0,0,0,0,0,0,1,0,0,1,0,0,4,0,0,0,0,0,0,0,0,0,0,0,0,0,0,林園區,22.5084057,120.3948505
2742050515,台灣中油公司石化事業部醫務室,07-6413701轉8747,高雄市林園區,高雄市林園區石化二路3號,"西醫一般科,",0,0,0,0,0,0,1,0,0,1,0,1,0,0,0,0,0,0,0,0,0,0,0,0,0,0,0,林園區,22.4986778,120.4066865
3707050023,鉅鈦牙醫診所,0935775870,高雄市林園區,高雄市林園區仁愛路26號1樓,"牙醫一般科,",0,0,0,0,0,0,0,0,1,0,0,0,0,0,0,0,0,0,0,0,0,0,0,0,0,0,0,林園區,22.5048105,120.3927463
3542052043,川宏診所,07-6452520,高雄市林園區,高雄市林園區鳳林路一段83號1樓,"西醫一般科,",0,0,0,0,0,0,1,0,0,2,0,1,1,0,0,0,0,0,0,0,0,0,0,0,0,0,0,林園區,22.5035941,120.3975286
3542050781,陳鍾靈診所,07 6429653  6429651,高雄市林園區,高雄市林園區信義路16號,"外科,婦產科,",0,0,0,0,0,0,1,0,0,0,1,1,1,0,0,0,0,0,0,0,0,0,0,0,0,0,0,林園區,22.5077311,120.3918109
3542052034,建芳診所,07-6467666,高雄市林園區,高雄市林園區東林東路28號1樓,"西醫一般科,",0,0,0,0,0,0,2,0,0,1,1,1,1,0,0,0,0,0,0,0,0,0,0,0,0,0,0,林園區,22.5037652,120.3965855
1542050056,建佑醫院,07-6437901,高雄市林園區,高雄市林園區東林西路358號1樓-4樓、360號地下1樓-5樓、362號地下1樓-7樓、364巷10號地下1樓-6樓、364巷10之1號1樓-3樓、364巷10之2號1樓-4樓、399號1樓-4樓及407巷7號1樓-3樓,"家庭醫學科,內科,外科,兒科,婦產科,骨科,神經外科,泌尿科,耳鼻喉科,眼科,精神科,復健科,麻醉科,放射診斷科,整形外科,牙醫一般科,",0,0,0,0,0,0,28,0,1,14,0,148,19,0,0,14,0,2,2,14,1,2,0,2,0,0,4,林園區,22.5038402,120.3867051
3542050496,蔡承訓診所,07 6452335,高雄市林園區,高雄市林園區東林西路270號,"西醫一般科,",0,0,0,0,0,0,1,0,0,0,1,0,1,0,0,0,0,0,0,0,0,0,0,0,0,0,0,林園區,22.5036686,120.3886273
3507050092,幸福婦產科診所,076418383,高雄市林園區,高雄市林園區林園區林園北路355號,"婦產科,",0,0,0,0,0,0,1,0,0,0,0,5,0,0,0,0,0,0,0,0,0,0,0,0,0,0,0,林園區,22.5102001,120.3944722
3707050032,樂林牙醫診所,0989463013，6411761,高雄市林園區,高雄市林園區林園里文化街145、147號1樓,"牙醫一般科,",0,0,0,0,0,0,0,0,7,0,0,0,0,0,0,0,0,0,0,0,0,0,0,0,0,0,0,林園區,22.5049948,120.3933225
3707050014,品嘉牙醫診所,07-6425538,高雄市林園區,高雄市林園區文化街175號1樓,"牙醫一般科,",0,0,0,0,0,0,0,0,2,0,0,0,0,0,0,0,0,0,0,0,0,0,0,0,0,0,0,林園區,22.5058955,120.3934423
3707050041,風華牙醫診所,6416181,高雄市林園區,高雄市林園區王公里王公路233號1-2樓及235號1-2樓,"牙醫一般科,",0,0,0,0,0,0,0,0,4,0,0,0,0,0,0,0,0,0,0,0,0,0,0,0,0,0,0,林園區,22.509518,120.3908135
3507050118,大仁小兒科診所,6436000,高雄市林園區,高雄市林園區林園里忠孝西路29號1樓,"兒科,",0,0,0,0,0,0,1,0,0,1,1,0,0,0,0,0,0,0,0,0,0,0,0,0,0,0,0,林園區,22.5068279,120.3942107
3507050083,聯合王婦產科診所,07-6425968,高雄市林園區,高雄市林園區文賢里沿海路三段148號1樓,"婦產科,",0,0,0,0,0,0,2,0,0,0,0,0,1,0,0,0,0,0,0,0,0,0,0,0,0,0,0,林園區,22.5001061,120.3888287
3807050025,德益中醫診所,6417766,高雄市林園區,高雄市林園區林園北路308號1樓,"中醫一般科,",0,0,0,0,0,0,0,1,0,0,0,1,0,0,0,0,0,0,0,0,0,0,0,0,0,0,0,林園區,22.5106166,120.3948036
3507050127,珈一診所,076413139,高雄市林園區,高雄市林園區仁愛里仁愛路163號1樓,"內科,",0,0,0,0,0,0,1,0,0,1,0,3,0,0,0,0,0,0,0,0,0,0,0,0,0,0,0,林園區,22.5078446,120.3920922
3542050576,冠林眼科診所,07 6433788,高雄市林園區,高雄市林園區東林西路２１６號1-2樓,"眼科,",0,0,0,0,0,1,1,0,0,2,0,2,0,0,0,0,0,0,0,0,0,0,0,0,0,0,0,林園區,22.5032686,120.3899182
1542051151,霖園醫院,07-6413399,高雄市林園區,高雄市林園區林園北路244號,"家庭醫學科,外科,骨科,",0,0,0,0,0,0,5,0,0,4,0,27,1,0,0,6,1,0,0,3,0,0,0,1,0,0,0,林園區,22.5090774,120.3947754
3807050061,東霖馬光中醫診所,6469688,高雄市林園區,高雄市林園區王公路37號1樓,"中醫一般科,",0,0,0,0,0,0,0,5,0,1,0,4,0,0,0,0,0,0,0,0,0,0,0,0,0,0,0,林園區,22.5130572,120.3935195
3542050558,廣仁診所,07 6434576,高雄市林園區,高雄市林園區東林西路２０８號,"西醫一般科,",0,0,0,0,0,0,1,0,0,2,0,0,1,0,0,0,0,0,0,0,0,0,0,0,0,0,0,林園區,22.503274,120.3901195
3542051948,陳耳鼻喉科診所,6420796,高雄市林園區,高雄市林園區林園北路234號,"耳鼻喉科,",0,0,0,0,0,0,2,0,0,0,2,1,0,0,0,0,0,0,0,0,0,0,0,0,0,0,0,林園區,22.5085833,120.394792
3742051184,張育靖牙醫診所,6430207,高雄市林園區,高雄市林園區林園北路413號,"牙醫一般科,",0,0,0,0,0,0,0,0,1,0,0,0,0,0,0,0,0,0,0,0,0,0,0,0,0,0,0,林園區,22.5113831,120.3947279
3542062192,大發診所,07-7882078,高雄市大寮區,高雄市大寮區潮寮里潮龍路202號1樓,"西醫一般科,",0,0,0,0,0,0,1,0,0,0,1,0,1,0,0,0,0,0,0,0,0,0,0,0,0,0,0,大寮區,22.5621596,120.4300618
3542060698,大寮進安診所,07-7812211,高雄市大寮區,高雄市大寮區鳳林四路134-1號,"西醫一般科,",0,0,0,0,0,0,1,0,0,1,0,2,1,0,0,0,0,0,0,0,0,0,0,0,0,0,0,大寮區,22.616378,120.3861868
3742060030,大芳牙醫診所,07 7810727,高雄市大寮區,高雄市大寮區鳳林三路６０１號,"牙醫一般科,",0,0,0,0,0,0,0,0,2,0,0,0,0,0,0,0,0,0,0,0,0,0,0,0,0,0,0,大寮區,22.6088381,120.3943665
3542060830,健聖診所,07 7861303,高雄市大寮區,高雄市大寮區中正路２號,"內科,",0,0,0,0,0,0,2,0,0,1,0,6,2,0,0,0,0,0,0,0,0,0,0,0,0,0,0,大寮區,22.6167805,120.3863669
3542060509,世林眼科診所,07 7860227,高雄市大寮區,高雄市大寮區鳳林四路２２９號,"眼科,",0,0,0,0,0,0,1,0,0,1,0,1,1,0,0,0,0,0,0,0,0,0,0,0,0,0,0,大寮區,22.6171227,120.3851307
3742060156,真善美牙醫診所,07-7813155,高雄市大寮區,高雄市大寮區鳳林四路225號,"牙醫一般科,",0,0,0,0,0,0,0,0,1,0,0,0,0,0,0,0,0,0,0,0,0,0,0,0,0,0,0,大寮區,22.6170405,120.3851785
3842061164,順親堂中醫診所,7011123,高雄市大寮區,高雄市大寮區仁愛路１４０號,"中醫一般科,",0,0,0,0,0,0,0,1,0,0,0,1,0,0,0,0,0,0,0,0,0,0,0,0,0,0,0,大寮區,22.6341796,120.3950534
3807060012,惠勝中醫診所,07-7888981,高雄市大寮區,高雄市大寮區大寮里大寮路889號1-2樓,"中醫一般科,",0,0,0,0,0,0,0,1,0,0,0,0,0,0,0,0,0,0,0,0,0,0,0,0,0,0,0,大寮區,22.5909621,120.4191643
3542062147,嘉德耳鼻喉科診所,07-7022626,高雄市大寮區,高雄市大寮區鳳屏一路441.443號1樓,"家庭醫學科,耳鼻喉科,",0,0,0,0,0,0,3,0,0,2,0,1,2,0,0,0,0,0,0,0,0,0,0,0,0,0,0,大寮區,22.6352321,120.3910252
3542061944,張文豪診所,7816276,高雄市大寮區,高雄市大寮區會社里力行路1-12號1樓,"內科,",0,0,0,0,0,0,1,0,0,0,1,1,1,0,0,0,0,0,0,0,0,0,0,0,0,0,0,大寮區,22.60066,120.3994002
3742060147,趙牙醫診所,07-7820888,高雄市大寮區,高雄市大寮區鳳林四路216號1樓,"牙醫一般科,",0,0,0,0,0,0,0,0,1,0,0,0,0,0,0,0,0,0,0,0,0,0,0,0,0,0,0,大寮區,22.6180911,120.3844532
3742060021,佳恩牙醫診所,07 7022239,高雄市大寮區,高雄市大寮區四維路１７７號,"牙醫一般科,",0,0,0,0,0,0,0,0,2,0,0,0,0,0,0,0,0,0,0,0,0,0,0,0,0,0,0,大寮區,22.6361249,120.3937955
3742060085,泰安牙醫診所,07-7885343,高雄市大寮區,"高雄市大寮區大寮路763號1樓,765號1樓","牙醫一般科,",0,0,0,0,0,0,0,0,2,0,0,0,0,0,0,0,0,0,0,0,0,0,0,0,0,0,0,大寮區,22.5914139,120.416096
3742060110,大發牙醫診所,07 7038218,高雄市大寮區,高雄市大寮區四維路 160號,"牙醫一般科,",0,0,0,0,0,0,0,0,1,0,0,0,0,0,0,0,0,0,0,0,0,0,0,0,0,0,0,大寮區,22.6356544,120.3936104
3742060138,林敏瑞牙醫診所,07 7833838,高雄市大寮區,高雄市大寮區山頂里內厝路２４５號,"牙醫一般科,",0,0,0,0,0,0,0,0,1,0,0,0,0,0,0,0,0,0,0,0,0,0,0,0,0,0,0,大寮區,22.6088387,120.3891169
3742061162,永芳牙醫診所,7836163,高雄市大寮區,高雄市大寮區鳳林三路577號,"牙醫一般科,",0,0,0,0,0,0,0,0,1,0,0,0,0,0,0,0,0,0,0,0,0,0,0,0,0,0,0,大寮區,22.6083839,120.394719
3742061206,田田牙醫診所,7827799,高雄市大寮區,高雄市大寮區力行路259號1，2樓,"牙醫一般科,",0,0,0,0,0,0,0,0,10,0,0,0,0,0,0,0,0,0,0,0,0,0,0,0,0,0,0,大寮區,22.6066459,120.396128
3742061215,瑞昇牙醫診所,07-7829396,高雄市大寮區,高雄市大寮區鳳林四路184號,"牙醫一般科,",0,0,0,0,0,0,0,0,1,0,0,0,0,0,0,0,0,0,0,0,0,0,0,0,0,0,0,大寮區,22.6175016,120.3850161
3542060714,親親家庭診所,07 7013483,高雄市大寮區,高雄市大寮區鳳屏一路536號1-2樓、538號1樓,"西醫一般科,",0,0,0,0,0,0,2,0,0,0,1,0,1,0,0,0,0,0,0,0,0,0,0,0,0,0,0,大寮區,22.6369334,120.3940085
3542061917,鳳信診所,7036751,高雄市大寮區,高雄市大寮區鳳屏一路578號1-2樓,"西醫一般科,",0,0,0,0,0,0,2,0,0,2,1,2,2,0,0,0,0,0,0,0,0,0,0,0,0,0,0,大寮區,22.6373677,120.3950005
3542061953,張桐榮診所,07-7825382,高雄市大寮區,高雄市大寮區鳳林三路573、575號,"西醫一般科,",0,0,0,0,0,0,3,0,0,2,1,2,3,0,0,0,0,0,0,0,0,0,0,0,0,0,0,大寮區,22.6083696,120.3947633
3542062030,陳骨外科診所,07-7810240,高雄市大寮區,高雄市大寮區鳳林四路220號,"外科,骨科,",0,0,0,0,0,0,1,0,0,1,0,0,2,0,0,0,0,2,0,0,0,1,0,0,0,0,0,大寮區,22.6181955,120.3844354
3542062058,實美皮膚科診所,7817578,高雄市大寮區,高雄市大寮區鳳林四路170之8號,"皮膚科,",0,0,0,0,0,0,1,0,0,1,0,1,0,0,0,0,0,0,0,0,0,0,0,0,0,0,0,大寮區,22.6170752,120.3854685
3542062067,同喬眼科診所,7027899,高雄市大寮區,高雄市大寮區鳳屏一路507號,"眼科,",0,0,0,0,2,0,3,0,0,2,0,7,1,0,0,0,0,0,0,0,0,0,0,0,0,0,0,大寮區,22.6386513,120.3968084
3542062085,趙眼科診所,7268576,高雄市大寮區,高雄市大寮區鳳林四路280號,"眼科,",0,0,0,0,0,0,1,0,0,0,0,0,0,0,0,0,0,0,0,0,0,0,0,0,0,0,0,大寮區,22.6193309,120.3831649
3542062094,大統內兒科診所,077836127,高雄市大寮區,高雄市大寮區鳳林四路五十六號,"內科,兒科,",0,0,0,0,0,0,1,0,0,1,0,0,0,0,0,0,0,0,0,0,0,0,0,0,0,0,0,大寮區,22.6182397,120.3841629
3542060189,宜和內兒科診所,07 7816825,高雄市大寮區,高雄市大寮區鳳林三路３４１號,"內科,兒科,",0,0,0,0,0,0,1,0,0,1,0,2,0,0,0,0,0,0,0,0,0,0,0,0,0,0,0,大寮區,22.601556,120.3977492
3542062156,圓明診所,07-6433298,高雄市大寮區,高雄市大寮區鳳林一路147號,"西醫一般科,",0,0,0,0,0,0,1,0,0,1,0,2,0,0,0,0,0,0,0,0,0,0,0,0,0,0,0,大寮區,22.5418029,120.4042593
3542062227,蕭宏儒診所,07-7889258,高雄市大寮區,高雄市大寮區大寮路595號1樓,"家庭醫學科,",0,0,0,0,0,0,1,0,0,0,0,1,0,0,0,0,0,0,0,0,0,0,0,0,0,0,0,大寮區,22.5923546,120.4125139
3542060401,洪耳鼻喉科診所,07 7861305,高雄市大寮區,高雄市大寮區鳳林四路156號,"耳鼻喉科,",0,0,0,0,0,0,1,0,0,0,2,3,1,0,0,0,0,0,0,0,0,0,0,0,0,0,0,大寮區,22.6167302,120.385728
3842061196,鳳屏中醫診所,07-7039900,高雄市大寮區,高雄市大寮區中庄里鳳屏一路556號1樓、558號1樓,"中醫一般科,",0,0,0,0,0,0,0,3,0,0,0,1,1,0,0,0,0,0,0,0,0,0,0,0,0,0,0,大寮區,22.6371272,120.3943342
3542062290,杏安診所,07-7810565,高雄市大寮區,高雄市大寮區琉球里林厝路53號1樓,"西醫一般科,",0,0,0,0,0,0,1,0,0,0,1,1,1,0,0,0,0,0,0,0,0,0,0,0,0,0,0,大寮區,22.6148509,120.4082026
3742061224,永潔牙醫診所,07-7018787,高雄市大寮區,高雄市大寮區中庒村鳳屏一路592-2號1樓,"牙醫一般科,",0,0,0,0,0,0,0,0,1,0,0,0,0,0,0,0,0,0,0,0,0,0,0,0,0,0,0,大寮區,22.6376127,120.395304
1442060014,財團法人台灣省私立高雄仁愛之家附設慈惠醫院,07-7030315,高雄市大寮區,高雄市大寮區鳳屏一路509號,"精神科,",0,0,0,0,0,0,8,0,0,10,0,65,4,0,0,2,0,0,8,0,0,0,0,0,0,7,1,大寮區,22.6389437,120.3978559
3542062307,大承耳鼻喉科診所,07-7013668,高雄市大寮區,高雄市大寮區鳳屏一路464號1樓2樓,"耳鼻喉科,",0,0,0,0,0,0,6,0,0,0,0,4,0,0,0,0,0,0,0,0,0,0,0,0,0,0,0,大寮區,22.6361458,120.3926292
3542062279,幸安診所,07-7812855,高雄市大寮區,高雄市大寮區永芳里鳳林三路526號1、2樓,"內科,",0,0,0,0,0,0,2,0,0,0,0,10,2,0,0,0,0,0,0,0,0,0,0,0,0,0,0,大寮區,22.6065099,120.3954662
3507060052,詠新耳鼻喉科診所,07-7032000,高雄市大寮區,高雄市大寮區中庄里鳳屏一路690號1樓,"耳鼻喉科,",0,0,0,0,0,0,1,0,0,1,1,3,1,0,0,0,0,0,0,0,0,0,0,0,0,0,0,大寮區,22.6381608,120.3970761
3842061182,永順中醫診所,07-7832662,高雄市大寮區,高雄市大寮區力行路29號1樓,"中醫一般科,",0,0,0,0,0,0,0,1,0,0,0,0,1,0,0,0,0,0,0,0,0,0,0,0,0,0,0,大寮區,22.6015198,120.3990683
3842061217,天煌大豐中醫診所,7865586,高雄市大寮區,高雄市大寮區鳳林三路506號1樓,"中醫一般科,",0,0,0,0,0,0,0,2,0,0,0,2,0,0,0,0,0,0,0,0,0,0,0,0,0,0,0,大寮區,22.6061481,120.3954016
3807060058,禾大中醫診所,07-7815599,高雄市大寮區,高雄市大寮區鳳林四路128號1樓,"中醫一般科,",0,0,0,0,0,0,0,3,0,0,0,2,0,0,0,0,0,0,0,0,0,0,0,0,0,0,0,大寮區,22.6162043,120.3863776
3807060021,大有中醫診所,07-7861868,高雄市大寮區,高雄市大寮區會社里鳳林三路219號1樓,"中醫一般科,",0,0,0,0,0,0,0,2,0,0,0,1,0,0,0,0,0,0,0,0,0,0,0,0,0,0,0,大寮區,22.5996036,120.3998107
3507060089,鳳林達特楊診所,07-7820000,高雄市大寮區,高雄市大寮區會社里鳳林三路179號1樓,"眼科,",0,0,0,0,2,0,1,0,0,1,1,6,0,0,0,0,0,0,0,0,0,0,0,0,0,0,0,大寮區,22.5985948,120.4002052
3807060030,至誠中醫診所,07-7837338,高雄市大寮區,高雄市大寮區鳳林三路423號1樓,"中醫一般科,",0,0,0,0,0,0,0,3,0,0,0,2,0,0,0,0,0,0,0,0,0,0,0,0,0,0,0,大寮區,22.603528,120.3962069
3507060061,周俊仁診所,07-7861168,高雄市大寮區,高雄市大寮區會社里鳳林三路300號1樓,"內科,",0,0,0,0,0,0,1,0,0,1,0,1,1,0,0,0,0,0,0,0,0,0,0,0,0,0,0,大寮區,22.6012194,120.3983209
3507060070,喉康診所,07-7017100,高雄市大寮區,高雄市大寮區中庄里仁愛路82號1樓,"內科,",0,0,0,0,0,0,2,0,0,2,0,1,1,0,0,0,0,0,0,0,0,0,0,0,0,0,0,大寮區,22.6354735,120.395218
3707060038,永新牙醫診所,07-7821478,高雄市大寮區,高雄市大寮區中興里鳳林四路88號1樓,"牙醫一般科,",0,0,0,0,0,0,0,0,2,0,0,0,0,0,0,0,0,0,0,0,0,0,0,0,0,0,0,大寮區,22.6155427,120.3874158
3707060047,聖典牙醫診所,07-7828899,高雄市大寮區,高雄市大寮區力行路277號1-4樓,"牙醫一般科,",0,0,0,0,0,0,0,0,2,0,0,0,0,0,0,0,0,0,0,0,0,0,0,0,0,0,0,大寮區,22.6068429,120.3959132
3842060041,漢泰隆中醫診所,07 7827828,高雄市大寮區,高雄市大寮區鳳林三路７９９號,"中醫一般科,",0,0,0,0,0,0,0,1,0,0,0,0,0,0,0,0,0,0,0,0,0,0,0,0,0,0,0,大寮區,22.6123326,120.390578
3507060105,其靈診所,07-7823335,高雄市大寮區,高雄市大寮區鳳林三路541號1-2樓,"家庭醫學科,",0,0,0,0,0,0,2,0,0,0,0,3,0,0,0,0,0,0,0,1,0,0,0,0,0,0,0,大寮區,22.6075852,120.3952144
3542060349,劉明海診所,07 7817358,高雄市大寮區,高雄市大寮區鳳林三路４５８號,"家庭醫學科,",0,0,0,0,0,0,1,0,0,1,0,1,0,0,0,0,0,0,0,0,0,0,0,0,0,0,0,大寮區,22.6046445,120.3957116
3507060114,宜家診所,,高雄市大寮區,高雄市大寮區鳳林三路343號1-4樓,"內科,",0,0,0,0,0,0,1,0,0,0,0,4,0,0,0,0,0,0,0,0,0,0,0,0,0,0,0,大寮區,22.6016018,120.3977524
3807060049,睿安中醫診所,07-7820365,高雄市大寮區,高雄市大寮區山頂里鳳林三路775、777號1樓,"中醫一般科,",0,0,0,0,0,0,0,3,0,0,0,3,0,0,0,0,0,0,0,0,0,0,0,0,0,0,0,大寮區,22.6120036,120.3911485
3507060043,大鋐診所,07-7038188,高雄市大寮區,高雄市大寮區中庄里鳳屏一路492號1樓,"耳鼻喉科,",0,0,0,0,0,0,5,0,0,0,0,6,1,0,0,0,0,0,0,0,0,0,0,0,0,0,0,大寮區,22.636477,120.3932408
3842060023,玉安中醫診所,02 7825730,高雄市大寮區,高雄市大寮區鳳林四路１９６號,"中醫一般科,",0,0,0,0,0,0,0,1,0,2,0,0,0,0,0,0,0,0,0,0,0,0,0,0,0,0,0,大寮區,22.6178529,120.3847717
3542060134,謝外科診所,07 7831770,高雄市大寮區,高雄市大寮區鳳林三路１９６號,"外科,",0,0,0,0,0,0,1,0,0,1,0,0,0,0,0,0,0,0,0,0,0,0,0,0,0,0,0,大寮區,22.5992418,120.4002231
3742060049,謝牙醫診所,07 7012803,高雄市大寮區,高雄市大寮區鳳屏一路４２２號,"牙醫一般科,",0,0,0,0,0,0,0,0,1,0,1,0,0,0,0,0,0,0,0,0,0,0,0,0,0,0,0,大寮區,22.63562,120.3917839
3507060034,佳和耳鼻喉科診所,7821500,高雄市大寮區,高雄市大寮區鳳林三路516號1樓,"耳鼻喉科,",0,0,0,0,0,0,3,0,0,0,0,4,0,0,0,0,0,0,0,0,0,0,0,0,0,0,0,大寮區,22.6061749,120.3954333
2342060013,高雄市大寮區衛生所,07-7811965,高雄市大寮區,高雄市大寮區進學路129巷2-1號,"西醫一般科,",0,0,0,0,0,0,1,0,0,0,0,10,0,0,0,0,0,0,0,0,0,0,0,0,0,0,0,大寮區,22.6044415,120.3935597
3842061100,宗漢中醫診所,077810838,高雄市大寮區,高雄市大寮區鳳林三路二十九、二十九之一、二十九之二號,"中醫一般科,",0,0,0,0,0,0,0,1,0,0,0,0,1,0,0,0,0,0,0,0,0,0,0,0,0,0,0,大寮區,22.6044359,120.3930927
1542061148,瑞生醫院,077838843,高雄市大寮區,高雄市大寮區鳳林四路192號,"內科,外科,",0,0,0,0,0,0,5,0,0,4,0,17,2,0,0,4,0,0,0,4,0,0,0,0,0,0,0,大寮區,22.61783,120.3848748
3542060769,大順診所,07 7038417,高雄市大寮區,高雄市大寮區鳳屏一路５６２號,"西醫一般科,",0,0,0,0,0,0,2,0,0,1,1,0,0,0,0,0,0,0,0,0,0,0,0,0,0,0,0,大寮區,22.6371727,120.3944366
1542061077,樂生婦幼醫院,7862688,高雄市大寮區,高雄市大寮區鳳林三路532號,"兒科,婦產科,",0,0,0,0,0,0,3,0,0,3,0,20,5,0,0,2,0,0,0,0,0,0,0,0,0,0,0,大寮區,22.606869,120.3955858
3542060474,大新診所,07-7882651,高雄市大寮區,高雄市大寮區大寮路511號,"西醫一般科,",0,0,0,0,0,0,1,0,0,0,0,0,1,0,0,0,0,0,0,0,0,0,0,0,0,0,0,大寮區,22.5926773,120.4106489
3542060125,太樹診所,07 6518042,高雄市大寮區,高雄市大寮區義和里九和路９號,"家庭醫學科,",0,0,0,0,0,0,1,0,0,1,0,0,0,0,0,0,0,0,0,0,0,0,0,0,0,0,0,大寮區,22.6426021,120.4185061
3807070027,汏樹中醫診所,6522698,高雄市大樹區,高雄市大樹區檨腳里中正一路375、377號,"中醫一般科,",0,0,0,0,0,0,0,2,0,0,0,2,0,0,0,0,0,0,0,0,0,0,0,0,0,0,0,大樹區,22.693283,120.4344224
3542070210,丰聯診所,07 6519312,高雄市大樹區,高雄市大樹區建村街74號,"西醫一般科,",0,0,0,0,0,0,1,0,0,1,0,1,1,0,0,0,0,0,0,0,0,0,0,0,0,0,0,大樹區,22.6565545,120.4190201
3542070167,愛仁診所,076525668,高雄市大樹區,高雄市大樹區久堂里九堂路147號,"西醫一般科,",0,0,0,0,0,0,1,0,0,0,0,0,2,0,0,0,0,0,0,0,0,0,0,0,0,0,0,大樹區,22.6793142,120.4254395
3842071099,久曲堂中醫診所,07-6512926,高雄市大樹區,高雄市大樹區建村街104.106號,"中醫一般科,",0,0,0,0,0,0,0,1,0,0,0,0,0,0,0,0,0,0,0,0,0,0,0,0,0,0,0,大樹區,22.6564696,120.4192734
3507070049,萬川診所,6516513,高雄市大樹區,高雄市大樹區檨腳里中興南路45號,"內科,",0,0,0,0,0,0,1,0,0,1,0,0,0,0,0,0,0,0,0,0,0,0,0,0,0,0,0,大樹區,22.6898278,120.4334901
3742071104,佛光牙醫診所,076561921轉6504,高雄市大樹區,高雄市大樹區興田路154號,"牙醫一般科,",0,0,0,0,0,0,0,0,1,0,0,0,0,0,0,0,0,0,0,0,0,0,0,0,0,0,0,大樹區,22.7471705,120.4466831
3542070069,潔揚診所,07 6510000,高雄市大樹區,高雄市大樹區大樹里大樹路北巷14-7號,"西醫一般科,",0,0,0,0,0,0,1,0,0,2,0,2,0,0,0,0,0,0,0,0,0,0,0,0,0,0,0,大樹區,22.6879891,120.430013
3542070149,立安診所,07 7476896,高雄市大樹區,高雄市大樹區水寮里中山路１９７號,"家庭醫學科,",0,0,0,0,0,0,1,0,0,0,1,1,1,0,0,0,0,0,0,0,0,0,0,0,0,0,0,大樹區,22.6675142,120.4090441
3542070229,黃百祿診所,07-6522708,高雄市大樹區,高雄市大樹區中興東路46號,"西醫一般科,",0,0,0,0,0,0,1,0,0,1,0,4,0,0,0,0,0,0,0,0,0,0,0,0,0,0,0,大樹區,22.691524,120.4347472
3542070023,啟泰診所,07 6512450,高雄市大樹區,高雄市大樹區久堂里中興街５０巷３號,"家庭醫學科,",0,0,0,0,0,0,1,0,0,1,0,0,0,0,0,0,0,0,0,0,0,0,0,0,0,0,0,大樹區,22.6577093,120.4196719
2542070013,國防部軍備局生產製造中心第二０五廠溪埔廠區醫務室,07 6563667,高雄市大樹區,高雄市大樹區興田里興田路３５號,"西醫一般科,",0,0,0,0,0,0,1,0,0,0,0,2,0,0,0,0,0,0,0,0,0,0,0,0,0,0,0,大樹區,22.7338368,120.4430049
3542071342,尚文診所,6527978,高雄市大樹區,高雄市大樹區久堂里久堂路30號1樓,"西醫一般科,",0,0,0,0,0,0,3,0,0,1,0,4,0,0,0,0,0,0,0,0,0,0,0,0,0,0,0,大樹區,22.6592134,120.4204592
3742070054,美齊牙醫診所,07 6511484,高雄市大樹區,高雄市大樹區九大路四十九號,"牙醫一般科,",0,0,0,0,0,0,0,0,2,0,0,0,0,0,0,0,0,0,0,0,0,0,0,0,0,0,0,大樹區,22.6508806,120.4245615
3742070107,長鼎牙醫診所,07-6527676,高雄市大樹區,高雄市大樹區中興南路58-1號,"牙醫一般科,",0,0,0,0,0,0,0,0,1,0,0,0,0,0,0,0,0,0,0,0,0,0,0,0,0,0,0,大樹區,22.6900565,120.4333237
3807070018,春元堂中醫診所,(07)6526558,高雄市大樹區,高雄市大樹區大樹里中興南路2巷34-6號,"中醫一般科,",0,0,0,0,0,0,0,1,0,0,0,0,1,0,0,0,0,0,0,0,0,0,0,0,0,0,0,大樹區,22.6909111,120.4326598
3507070067,洪明元診所,07-6521856,高雄市大樹區,高雄市大樹區檨腳里實踐街87號1樓,"西醫一般科,",0,0,0,0,0,0,1,0,0,0,1,2,0,0,0,0,0,0,0,0,0,0,0,0,0,0,0,大樹區,22.6888692,120.4311895
2342070019,高雄市大樹區衛生所,07-6512935,高雄市大樹區,高雄市大樹區龍目里龍目路158號,,0,0,0,0,0,0,0,0,0,1,0,6,0,0,0,0,0,0,0,0,0,0,0,0,0,0,0,大樹區,22.6844177,120.4140745
3507070076,杏欣診所,652-0652,高雄市大樹區,高雄市大樹區檨腳里中興西路20號四樓,"內科,",0,0,0,0,0,0,1,0,0,0,0,3,2,0,0,0,0,0,0,0,0,0,0,0,0,0,0,大樹區,22.6911518,120.4321042
3507070085,大樹晨安診所,07-6523777,高雄市大樹區,高雄市大樹區檨腳里實踐街224號1樓,"西醫一般科,",0,0,0,0,0,0,1,0,0,0,1,1,0,0,0,0,0,0,0,0,0,0,0,0,0,0,0,大樹區,22.6890596,120.4310963
3542071280,宏彰診所,07-6527531,高雄市大樹區,高雄市大樹區中正一路423號,"西醫一般科,",0,0,0,0,0,0,1,0,0,1,0,2,1,0,0,0,0,0,0,0,0,0,0,0,0,0,0,大樹區,22.6947654,120.4340116
3542071315,佛光聯合診所,07-6561921,高雄市大樹區,高雄市大樹區興田里興田路154號1樓,"西醫一般科,",0,0,0,0,0,0,3,0,0,0,1,5,0,0,0,0,0,0,0,0,0,0,0,0,0,0,0,大樹區,22.7471705,120.4466831
3542071351,大森診所,07-6527680,高雄市大樹區,高雄市大樹區久堂里中興街89號1樓,"西醫一般科,",0,0,0,0,0,0,2,0,0,0,1,2,0,0,0,0,0,0,0,0,0,0,0,0,0,0,0,大樹區,22.6569016,120.4201101
3742070063,九曲堂牙醫診所,07 6521234,高雄市大樹區,高雄市大樹區久堂里建村街２７號,"牙醫一般科,",0,0,0,0,0,0,0,0,1,0,0,1,0,0,0,0,0,0,0,0,0,0,0,0,0,0,0,大樹區,22.6565364,120.4199913
3707080085,晨心牙醫診所,07-3736699,高雄市仁武區,高雄市仁武區八德中路82號1樓,"牙醫一般科,",0,0,0,0,0,0,0,0,5,0,0,0,0,0,0,0,0,0,0,0,0,0,0,0,0,0,0,仁武區,22.6863288,120.3383595
3507080214,仁武深忻診所,07-3746583,高雄市仁武區,高雄市仁武區仁雄路67-5號1-2樓,"精神科,西醫一般科,",0,0,0,0,0,0,2,0,0,3,0,2,0,0,0,0,0,0,0,0,0,0,0,0,1,0,0,仁武區,22.6788867,120.348574
